[
    {
        "city": "بادغيس",
        "city_ascii": "Qal eh-ye",
        "country": "Afghanistan",
        "iso2": "AF",
        "iso3": "AFG",
        "lat": 34.98300013,
        "lng": 63.13329964,
        "pop": 2997,
        "province": "Badghis",
        "timezone": "Asia/Kabul"
    },
    {
        "city": "شاغشاران",
        "city_ascii": "Chaghcharan",
        "country": "Afghanistan",
        "iso2": "AF",
        "iso3": "AFG",
        "lat": 34.5167011,
        "lng": 65.25000063,
        "pop": 15000,
        "province": "Ghor",
        "timezone": "Asia/Kabul"
    },
    {
        "city": "Lashkar Gah",
        "city_ascii": "Lashkar Gah",
        "country": "Afghanistan",
        "iso2": "AF",
        "iso3": "AFG",
        "lat": 31.58299802,
        "lng": 64.35999955,
        "pop": 201546,
        "province": "Hilmand",
        "timezone": "Asia/Kabul"
    },
    {
        "city": "Zaranj",
        "city_ascii": "Zaranj",
        "country": "Afghanistan",
        "iso2": "AF",
        "iso3": "AFG",
        "lat": 31.11200108,
        "lng": 61.88699752,
        "pop": 49851,
        "province": "Nimroz",
        "timezone": "Asia/Kabul"
    },
    {
        "city": "Nimroz",
        "city_ascii": "Zaranj",
        "country": "Afghanistan",
        "iso2": "AF",
        "iso3": "AFG",
        "lat": 31.11200108,
        "lng": 61.88699752,
        "pop": 49851,
        "province": "Nimroz",
        "timezone": "Asia/Kabul"
    },
    {
        "city": "Uruzgan",
        "city_ascii": "Tarin Kowt",
        "country": "Afghanistan",
        "iso2": "AF",
        "iso3": "AFG",
        "lat": 32.63329815,
        "lng": 65.86669865,
        "pop": 10000,
        "province": "Uruzgan",
        "timezone": "Asia/Kabul"
    },
    {
        "city": "Paktika",
        "city_ascii": "Zareh Sharan",
        "country": "Afghanistan",
        "iso2": "AF",
        "iso3": "AFG",
        "lat": 32.85000016,
        "lng": 68.41670453,
        "pop": 13737,
        "province": "Paktika",
        "timezone": "Asia/Kabul"
    },
    {
        "city": "Asadabad",
        "city_ascii": "Asadabad",
        "country": "Afghanistan",
        "iso2": "AF",
        "iso3": "AFG",
        "lat": 34.86600004,
        "lng": 71.15000459,
        "pop": 48400,
        "province": "Kunar",
        "timezone": "Asia/Kabul"
    },
    {
        "city": "Kunar",
        "city_ascii": "Asadabad",
        "country": "Afghanistan",
        "iso2": "AF",
        "iso3": "AFG",
        "lat": 34.86600004,
        "lng": 71.15000459,
        "pop": 48400,
        "province": "Kunar",
        "timezone": "Asia/Kabul"
    },
    {
        "city": "Taloqan",
        "city_ascii": "Taloqan",
        "country": "Afghanistan",
        "iso2": "AF",
        "iso3": "AFG",
        "lat": 36.72999904,
        "lng": 69.54000364,
        "pop": 64256,
        "province": "Takhar",
        "timezone": "Asia/Kabul"
    },
    {
        "city": "Takhar",
        "city_ascii": "Taloqan",
        "country": "Afghanistan",
        "iso2": "AF",
        "iso3": "AFG",
        "lat": 36.72999904,
        "lng": 69.54000364,
        "pop": 64256,
        "province": "Takhar",
        "timezone": "Asia/Kabul"
    },
    {
        "city": "Kapisa",
        "city_ascii": "Mahmud-E Eraqi",
        "country": "Afghanistan",
        "iso2": "AF",
        "iso3": "AFG",
        "lat": 35.01669608,
        "lng": 69.33330065,
        "pop": 7407,
        "province": "Kapisa",
        "timezone": "Asia/Kabul"
    },
    {
        "city": "Mehtar Lam",
        "city_ascii": "Mehtar Lam",
        "country": "Afghanistan",
        "iso2": "AF",
        "iso3": "AFG",
        "lat": 34.65000001,
        "lng": 70.16670052,
        "pop": 17345,
        "province": "Laghman",
        "timezone": "Asia/Kabul"
    },
    {
        "city": "Laghman",
        "city_ascii": "Mehtar Lam",
        "country": "Afghanistan",
        "iso2": "AF",
        "iso3": "AFG",
        "lat": 34.65000001,
        "lng": 70.16670052,
        "pop": 17345,
        "province": "Laghman",
        "timezone": "Asia/Kabul"
    },
    {
        "city": "Baraki Barak",
        "city_ascii": "Baraki Barak",
        "country": "Afghanistan",
        "iso2": "AF",
        "iso3": "AFG",
        "lat": 33.9667021,
        "lng": 68.96670354,
        "pop": 22305,
        "province": "Logar",
        "timezone": "Asia/Kabul"
    },
    {
        "city": "Logar",
        "city_ascii": "Baraki Barak",
        "country": "Afghanistan",
        "iso2": "AF",
        "iso3": "AFG",
        "lat": 33.9667021,
        "lng": 68.96670354,
        "pop": 22305,
        "province": "Logar",
        "timezone": "Asia/Kabul"
    },
    {
        "city": "Samangan",
        "city_ascii": "Aybak",
        "country": "Afghanistan",
        "iso2": "AF",
        "iso3": "AFG",
        "lat": 36.26100015,
        "lng": 68.04000051,
        "pop": 24000,
        "province": "Samangan",
        "timezone": "Asia/Kabul"
    },
    {
        "city": "Sheberghan",
        "city_ascii": "Sheberghan",
        "country": "Afghanistan",
        "iso2": "AF",
        "iso3": "AFG",
        "lat": 36.65798077,
        "lng": 65.73830237,
        "pop": 74441,
        "province": "Jawzjan",
        "timezone": "Asia/Kabul"
    },
    {
        "city": "Baghlan",
        "city_ascii": "Pol-e Khomri",
        "country": "Afghanistan",
        "iso2": "AF",
        "iso3": "AFG",
        "lat": 35.95107302,
        "lng": 68.70111894,
        "pop": 41029,
        "province": "Baghlan",
        "timezone": "Asia/Kabul"
    },
    {
        "city": "Balkh",
        "city_ascii": "Balkh",
        "country": "Afghanistan",
        "iso2": "AF",
        "iso3": "AFG",
        "lat": 36.75011985,
        "lng": 66.89973018,
        "pop": 147426,
        "province": "Balkh",
        "timezone": "Asia/Kabul"
    },
    {
        "city": "Meymaneh",
        "city_ascii": "Meymaneh",
        "country": "Afghanistan",
        "iso2": "AF",
        "iso3": "AFG",
        "lat": 35.93022158,
        "lng": 64.77009273,
        "pop": 199795,
        "province": "Faryab",
        "timezone": "Asia/Kabul"
    },
    {
        "city": "Faryab",
        "city_ascii": "Meymaneh",
        "country": "Afghanistan",
        "iso2": "AF",
        "iso3": "AFG",
        "lat": 35.93022158,
        "lng": 64.77009273,
        "pop": 199795,
        "province": "Faryab",
        "timezone": "Asia/Kabul"
    },
    {
        "city": "Qalat",
        "city_ascii": "Qalat",
        "country": "Afghanistan",
        "iso2": "AF",
        "iso3": "AFG",
        "lat": 32.11226341,
        "lng": 66.8867594,
        "pop": 12191,
        "province": "Zabul",
        "timezone": "Asia/Kabul"
    },
    {
        "city": "Zabul",
        "city_ascii": "Qalat",
        "country": "Afghanistan",
        "iso2": "AF",
        "iso3": "AFG",
        "lat": 32.11226341,
        "lng": 66.8867594,
        "pop": 12191,
        "province": "Zabul",
        "timezone": "Asia/Kabul"
    },
    {
        "city": "Ghazni",
        "city_ascii": "Ghazni",
        "country": "Afghanistan",
        "iso2": "AF",
        "iso3": "AFG",
        "lat": 33.56331179,
        "lng": 68.41782873,
        "pop": 129892.5,
        "province": "Ghazni",
        "timezone": "Asia/Kabul"
    },
    {
        "city": "Feyzabad",
        "city_ascii": "Feyzabad",
        "country": "Afghanistan",
        "iso2": "AF",
        "iso3": "AFG",
        "lat": 37.12976076,
        "lng": 70.57924719,
        "pop": 52490,
        "province": "Badakhshan",
        "timezone": "Asia/Kabul"
    },
    {
        "city": "Badakhshan",
        "city_ascii": "Feyzabad",
        "country": "Afghanistan",
        "iso2": "AF",
        "iso3": "AFG",
        "lat": 37.12976076,
        "lng": 70.57924719,
        "pop": 52490,
        "province": "Badakhshan",
        "timezone": "Asia/Kabul"
    },
    {
        "city": "Kunduz",
        "city_ascii": "Kondoz",
        "country": "Afghanistan",
        "iso2": "AF",
        "iso3": "AFG",
        "lat": 36.72795066,
        "lng": 68.87252966,
        "pop": 210855.5,
        "province": "Kunduz",
        "timezone": "Asia/Kabul"
    },
    {
        "city": "Jalalabad",
        "city_ascii": "Jalalabad",
        "country": "Afghanistan",
        "iso2": "AF",
        "iso3": "AFG",
        "lat": 34.44152692,
        "lng": 70.43610347,
        "pop": 401697,
        "province": "Nangarhar",
        "timezone": "Asia/Kabul"
    },
    {
        "city": "Nangarhar",
        "city_ascii": "Jalalabad",
        "country": "Afghanistan",
        "iso2": "AF",
        "iso3": "AFG",
        "lat": 34.44152692,
        "lng": 70.43610347,
        "pop": 401697,
        "province": "Nangarhar",
        "timezone": "Asia/Kabul"
    },
    {
        "city": "Charikar",
        "city_ascii": "Charikar",
        "country": "Afghanistan",
        "iso2": "AF",
        "iso3": "AFG",
        "lat": 35.01826174,
        "lng": 69.16791215,
        "pop": 53676,
        "province": "Parwan",
        "timezone": "Asia/Kabul"
    },
    {
        "city": "Parwan",
        "city_ascii": "Charikar",
        "country": "Afghanistan",
        "iso2": "AF",
        "iso3": "AFG",
        "lat": 35.01826174,
        "lng": 69.16791215,
        "pop": 53676,
        "province": "Parwan",
        "timezone": "Asia/Kabul"
    },
    {
        "city": "Gardiz",
        "city_ascii": "Gardiz",
        "country": "Afghanistan",
        "iso2": "AF",
        "iso3": "AFG",
        "lat": 33.60005373,
        "lng": 69.21462764,
        "pop": 82680.5,
        "province": "Paktya",
        "timezone": "Asia/Kabul"
    },
    {
        "city": "Bamian",
        "city_ascii": "Bamian",
        "country": "Afghanistan",
        "iso2": "AF",
        "iso3": "AFG",
        "lat": 34.82106447,
        "lng": 67.52103593,
        "pop": 61863,
        "province": "Bamyan",
        "timezone": "Asia/Kabul"
    },
    {
        "city": "Bamyan",
        "city_ascii": "Bamian",
        "country": "Afghanistan",
        "iso2": "AF",
        "iso3": "AFG",
        "lat": 34.82106447,
        "lng": 67.52103593,
        "pop": 61863,
        "province": "Bamyan",
        "timezone": "Asia/Kabul"
    },
    {
        "city": "Baghlan",
        "city_ascii": "Baghlan",
        "country": "Afghanistan",
        "iso2": "AF",
        "iso3": "AFG",
        "lat": 36.13933026,
        "lng": 68.69925858,
        "pop": 163598.5,
        "province": "Baghlan",
        "timezone": "Asia/Kabul"
    },
    {
        "city": "Farah",
        "city_ascii": "Farah",
        "country": "Afghanistan",
        "iso2": "AF",
        "iso3": "AFG",
        "lat": 32.39172955,
        "lng": 62.09681921,
        "pop": 58604,
        "province": "Farah",
        "timezone": "Asia/Kabul"
    },
    {
        "city": "Herat",
        "city_ascii": "Herat",
        "country": "Afghanistan",
        "iso2": "AF",
        "iso3": "AFG",
        "lat": 34.33000917,
        "lng": 62.16999304,
        "pop": 439232.5,
        "province": "Hirat",
        "timezone": "Asia/Kabul"
    },
    {
        "city": "Mazar-e Sharif",
        "city_ascii": "Mazar-e Sharif",
        "country": "Afghanistan",
        "iso2": "AF",
        "iso3": "AFG",
        "lat": 36.69999371,
        "lng": 67.10002803,
        "pop": 365432.5,
        "province": "Balkh",
        "timezone": "Asia/Kabul"
    },
    {
        "city": "Balkh",
        "city_ascii": "Mazar-e Sharif",
        "country": "Afghanistan",
        "iso2": "AF",
        "iso3": "AFG",
        "lat": 36.69999371,
        "lng": 67.10002803,
        "pop": 365432.5,
        "province": "Balkh",
        "timezone": "Asia/Kabul"
    },
    {
        "city": "Kandahar",
        "city_ascii": "Kandahar",
        "country": "Afghanistan",
        "iso2": "AF",
        "iso3": "AFG",
        "lat": 31.61002016,
        "lng": 65.69494584,
        "pop": 613871,
        "province": "Kandahar",
        "timezone": "Asia/Kabul"
    },
    {
        "city": "Kabul",
        "city_ascii": "Kabul",
        "country": "Afghanistan",
        "iso2": "AF",
        "iso3": "AFG",
        "lat": 34.51669029,
        "lng": 69.18326005,
        "pop": 3160266,
        "province": "Kabul",
        "timezone": "Asia/Kabul"
    },
    {
        "city": "Mariehamn",
        "city_ascii": "Mariehamn",
        "country": "Aland",
        "iso2": "AX",
        "iso3": "ALD",
        "lat": 60.09699618,
        "lng": 19.94900447,
        "pop": 10682,
        "province": "Finström",
        "timezone": "Europe/Mariehamn"
    },
    {
        "city": "Finström",
        "city_ascii": "Mariehamn",
        "country": "Aland",
        "iso2": "AX",
        "iso3": "ALD",
        "lat": 60.09699618,
        "lng": 19.94900447,
        "pop": 10682,
        "province": "Finström",
        "timezone": "Europe/Mariehamn"
    },
    {
        "city": "Kruje",
        "city_ascii": "Kruje",
        "country": "Albania",
        "iso2": "AL",
        "iso3": "ALB",
        "lat": 41.51899817,
        "lng": 19.79700359,
        "pop": 21286,
        "province": "Durrës",
        "timezone": "Europe/Tirane"
    },
    {
        "city": "Durrës",
        "city_ascii": "Kruje",
        "country": "Albania",
        "iso2": "AL",
        "iso3": "ALB",
        "lat": 41.51899817,
        "lng": 19.79700359,
        "pop": 21286,
        "province": "Durrës",
        "timezone": "Europe/Tirane"
    },
    {
        "city": "Fier",
        "city_ascii": "Fier",
        "country": "Albania",
        "iso2": "AL",
        "iso3": "ALB",
        "lat": 40.73000402,
        "lng": 19.5730026,
        "pop": 69747.5,
        "province": "Fier",
        "timezone": "Europe/Tirane"
    },
    {
        "city": "Lushnje",
        "city_ascii": "Lushnje",
        "country": "Albania",
        "iso2": "AL",
        "iso3": "ALB",
        "lat": 40.94000113,
        "lng": 19.71600348,
        "pop": 41469,
        "province": "Fier",
        "timezone": "Europe/Tirane"
    },
    {
        "city": "Puke",
        "city_ascii": "Puke",
        "country": "Albania",
        "iso2": "AL",
        "iso3": "ALB",
        "lat": 42.03330302,
        "lng": 19.88330448,
        "pop": 6495,
        "province": "Shkodër",
        "timezone": "Europe/Tirane"
    },
    {
        "city": "Bajram Curri",
        "city_ascii": "Bajram Curri",
        "country": "Albania",
        "iso2": "AL",
        "iso3": "ALB",
        "lat": 42.33330007,
        "lng": 20.08330257,
        "pop": 7967,
        "province": "Kukës",
        "timezone": "Europe/Tirane"
    },
    {
        "city": "Kukes",
        "city_ascii": "Kukes",
        "country": "Albania",
        "iso2": "AL",
        "iso3": "ALB",
        "lat": 42.08300107,
        "lng": 20.43399653,
        "pop": 17832,
        "province": "Kukës",
        "timezone": "Europe/Tirane"
    },
    {
        "city": "Sarande",
        "city_ascii": "Sarande",
        "country": "Albania",
        "iso2": "AL",
        "iso3": "ALB",
        "lat": 39.87700212,
        "lng": 19.99999859,
        "pop": 15147,
        "province": "Vlorë",
        "timezone": "Europe/Tirane"
    },
    {
        "city": "Erseke",
        "city_ascii": "Erseke",
        "country": "Albania",
        "iso2": "AL",
        "iso3": "ALB",
        "lat": 40.33330213,
        "lng": 20.68329651,
        "pop": 7890,
        "province": "Korçë",
        "timezone": "Europe/Tirane"
    },
    {
        "city": "Pogradec",
        "city_ascii": "Pogradec",
        "country": "Albania",
        "iso2": "AL",
        "iso3": "ALB",
        "lat": 40.89999612,
        "lng": 20.66400062,
        "pop": 35000,
        "province": "Korçë",
        "timezone": "Europe/Tirane"
    },
    {
        "city": "Korce",
        "city_ascii": "Korce",
        "country": "Albania",
        "iso2": "AL",
        "iso3": "ALB",
        "lat": 40.61667601,
        "lng": 20.76666353,
        "pop": 58259,
        "province": "Korçë",
        "timezone": "Europe/Tirane"
    },
    {
        "city": "Berat",
        "city_ascii": "Berat",
        "country": "Albania",
        "iso2": "AL",
        "iso3": "ALB",
        "lat": 40.70999705,
        "lng": 19.97199958,
        "pop": 46866,
        "province": "Berat",
        "timezone": "Europe/Tirane"
    },
    {
        "city": "Corovode",
        "city_ascii": "Corovode",
        "country": "Albania",
        "iso2": "AL",
        "iso3": "ALB",
        "lat": 40.51670403,
        "lng": 20.23329663,
        "pop": 14046,
        "province": "Berat",
        "timezone": "Europe/Tirane"
    },
    {
        "city": "Gramsh",
        "city_ascii": "Gramsh",
        "country": "Albania",
        "iso2": "AL",
        "iso3": "ALB",
        "lat": 40.86669601,
        "lng": 20.19999652,
        "pop": 11556,
        "province": "Elbasan",
        "timezone": "Europe/Tirane"
    },
    {
        "city": "Librazhd",
        "city_ascii": "Librazhd",
        "country": "Albania",
        "iso2": "AL",
        "iso3": "ALB",
        "lat": 41.20000211,
        "lng": 20.3667036,
        "pop": 12691,
        "province": "Elbasan",
        "timezone": "Europe/Tirane"
    },
    {
        "city": "Tepelene",
        "city_ascii": "Tepelene",
        "country": "Albania",
        "iso2": "AL",
        "iso3": "ALB",
        "lat": 40.2832981,
        "lng": 20.03329854,
        "pop": 11955,
        "province": "Gjirokastër",
        "timezone": "Europe/Tirane"
    },
    {
        "city": "Permet",
        "city_ascii": "Permet",
        "country": "Albania",
        "iso2": "AL",
        "iso3": "ALB",
        "lat": 40.23399605,
        "lng": 20.35199756,
        "pop": 10686,
        "province": "Gjirokastër",
        "timezone": "Europe/Tirane"
    },
    {
        "city": "Gjirokaster",
        "city_ascii": "Gjirokaster",
        "country": "Albania",
        "iso2": "AL",
        "iso3": "ALB",
        "lat": 40.07899809,
        "lng": 20.14900256,
        "pop": 23437,
        "province": "Gjirokastër",
        "timezone": "Europe/Tirane"
    },
    {
        "city": "Peshkopi",
        "city_ascii": "Peshkopi",
        "country": "Albania",
        "iso2": "AL",
        "iso3": "ALB",
        "lat": 41.6833021,
        "lng": 20.43330349,
        "pop": 14848,
        "province": "Dibër",
        "timezone": "Europe/Tirane"
    },
    {
        "city": "Burrel",
        "city_ascii": "Burrel",
        "country": "Albania",
        "iso2": "AL",
        "iso3": "ALB",
        "lat": 41.62599908,
        "lng": 20.01600053,
        "pop": 15405,
        "province": "Dibër",
        "timezone": "Europe/Tirane"
    },
    {
        "city": "Lezhe",
        "city_ascii": "Lezhe",
        "country": "Albania",
        "iso2": "AL",
        "iso3": "ALB",
        "lat": 41.78799914,
        "lng": 19.65400254,
        "pop": 18695,
        "province": "Lezhë",
        "timezone": "Europe/Tirane"
    },
    {
        "city": "Rreshen",
        "city_ascii": "Rreshen",
        "country": "Albania",
        "iso2": "AL",
        "iso3": "ALB",
        "lat": 41.78330106,
        "lng": 19.81670459,
        "pop": 10064,
        "province": "Lezhë",
        "timezone": "Europe/Tirane"
    },
    {
        "city": "Vlore",
        "city_ascii": "Vlore",
        "country": "Albania",
        "iso2": "AL",
        "iso3": "ALB",
        "lat": 40.47736005,
        "lng": 19.49823075,
        "pop": 89508.5,
        "province": "Vlorë",
        "timezone": "Europe/Tirane"
    },
    {
        "city": "Elbasan",
        "city_ascii": "Elbasan",
        "country": "Albania",
        "iso2": "AL",
        "iso3": "ALB",
        "lat": 41.12150677,
        "lng": 20.08382808,
        "pop": 132956.5,
        "province": "Elbasan",
        "timezone": "Europe/Tirane"
    },
    {
        "city": "Durres",
        "city_ascii": "Durres",
        "country": "Albania",
        "iso2": "AL",
        "iso3": "ALB",
        "lat": 41.3177997,
        "lng": 19.44820797,
        "pop": 132233,
        "province": "Durrës",
        "timezone": "Europe/Tirane"
    },
    {
        "city": "Shkoder",
        "city_ascii": "Shkoder",
        "country": "Albania",
        "iso2": "AL",
        "iso3": "ALB",
        "lat": 42.06845156,
        "lng": 19.51884965,
        "pop": 122006,
        "province": "Shkodër",
        "timezone": "Europe/Tirane"
    },
    {
        "city": "Tirana",
        "city_ascii": "Tirana",
        "country": "Albania",
        "iso2": "AL",
        "iso3": "ALB",
        "lat": 41.32754071,
        "lng": 19.81888301,
        "pop": 658318,
        "province": "Durrës",
        "timezone": "Europe/Tirane"
    },
    {
        "city": "Jijel",
        "city_ascii": "Jijel",
        "country": "Algeria",
        "iso2": "DZ",
        "iso3": "DZA",
        "lat": 36.82199703,
        "lng": 5.76600356,
        "pop": 148000,
        "province": "Jijel",
        "timezone": "Africa/Algiers"
    },
    {
        "city": "Tizi-Ouzou",
        "city_ascii": "Tizi-Ouzou",
        "country": "Algeria",
        "iso2": "DZ",
        "iso3": "DZA",
        "lat": 36.80000111,
        "lng": 4.033332556,
        "pop": 144000,
        "province": "Tizi Ouzou",
        "timezone": "Africa/Algiers"
    },
    {
        "city": "Bordj Bou Arreridj",
        "city_ascii": "Bordj Bou Arreridj",
        "country": "Algeria",
        "iso2": "DZ",
        "iso3": "DZA",
        "lat": 36.05900401,
        "lng": 4.629996466,
        "pop": 134500,
        "province": "Bordj Bou Arréridj",
        "timezone": "Africa/Algiers"
    },
    {
        "city": "M'sila",
        "city_ascii": "M'sila",
        "country": "Algeria",
        "iso2": "DZ",
        "iso3": "DZA",
        "lat": 35.7000031,
        "lng": 4.545000584,
        "pop": 125000,
        "province": "M'Sila",
        "timezone": "Africa/Algiers"
    },
    {
        "city": "Guelma",
        "city_ascii": "Guelma",
        "country": "Algeria",
        "iso2": "DZ",
        "iso3": "DZA",
        "lat": 36.46600213,
        "lng": 7.427997486,
        "pop": 123590,
        "province": "Guelma",
        "timezone": "Africa/Algiers"
    },
    {
        "city": "Oum el Bouaghi",
        "city_ascii": "Oum el Bouaghi",
        "country": "Algeria",
        "iso2": "DZ",
        "iso3": "DZA",
        "lat": 35.84999715,
        "lng": 7.149996522,
        "pop": 100821,
        "province": "Oum el Bouaghi",
        "timezone": "Africa/Algiers"
    },
    {
        "city": "Timimoun",
        "city_ascii": "Timimoun",
        "country": "Algeria",
        "iso2": "DZ",
        "iso3": "DZA",
        "lat": 29.23652163,
        "lng": 0.269998737,
        "pop": 26568,
        "province": "Adrar",
        "timezone": "Africa/Algiers"
    },
    {
        "city": "Tlemcen",
        "city_ascii": "Tlimcen",
        "country": "Algeria",
        "iso2": "DZ",
        "iso3": "DZA",
        "lat": 34.89041424,
        "lng": -1.32000757,
        "pop": 181059,
        "province": "Tlemcen",
        "timezone": "Africa/Algiers"
    },
    {
        "city": "Beni Ounif",
        "city_ascii": "Beni Ounif",
        "country": "Algeria",
        "iso2": "DZ",
        "iso3": "DZA",
        "lat": 32.04926984,
        "lng": -1.251381268,
        "pop": 5628,
        "province": "Béchar",
        "timezone": "Africa/Algiers"
    },
    {
        "city": "Abadla",
        "city_ascii": "Abadla",
        "country": "Algeria",
        "iso2": "DZ",
        "iso3": "DZA",
        "lat": 31.01708478,
        "lng": -2.733306317,
        "pop": 14364,
        "province": "Béchar",
        "timezone": "Africa/Algiers"
    },
    {
        "city": "Skikda",
        "city_ascii": "Skikda",
        "country": "Algeria",
        "iso2": "DZ",
        "iso3": "DZA",
        "lat": 36.88042198,
        "lng": 6.899981647,
        "pop": 193941.5,
        "province": "Skikda",
        "timezone": "Africa/Algiers"
    },
    {
        "city": "I-n-Amenas",
        "city_ascii": "I-n-Amenas",
        "country": "Algeria",
        "iso2": "DZ",
        "iso3": "DZA",
        "lat": 28.0503408,
        "lng": 9.550000772,
        "pop": 216,
        "province": "Illizi",
        "timezone": "Africa/Algiers"
    },
    {
        "city": "In Amguel",
        "city_ascii": "In Amguel",
        "country": "Algeria",
        "iso2": "DZ",
        "iso3": "DZA",
        "lat": 23.69394004,
        "lng": 5.164738727,
        "pop": 3030,
        "province": "Tamanghasset",
        "timezone": "Africa/Algiers"
    },
    {
        "city": "El Bayadh",
        "city_ascii": "El Bayadh",
        "country": "Algeria",
        "iso2": "DZ",
        "iso3": "DZA",
        "lat": 33.6903583,
        "lng": 1.009953571,
        "pop": 67413,
        "province": "El Bayadh",
        "timezone": "Africa/Algiers"
    },
    {
        "city": "El Oued",
        "city_ascii": "El Oued",
        "country": "Algeria",
        "iso2": "DZ",
        "iso3": "DZA",
        "lat": 33.37040367,
        "lng": 6.859984089,
        "pop": 177497,
        "province": "Biskra",
        "timezone": "Africa/Algiers"
    },
    {
        "city": "Hassi Messaoud",
        "city_ascii": "Hassi Messaoud",
        "country": "Algeria",
        "iso2": "DZ",
        "iso3": "DZA",
        "lat": 31.70234011,
        "lng": 6.054451862,
        "pop": 18124,
        "province": "Ouargla",
        "timezone": "Africa/Algiers"
    },
    {
        "city": "Chlef",
        "city_ascii": "Chlef",
        "country": "Algeria",
        "iso2": "DZ",
        "iso3": "DZA",
        "lat": 36.17041363,
        "lng": 1.319960489,
        "pop": 449167,
        "province": "Chlef",
        "timezone": "Africa/Algiers"
    },
    {
        "city": "Mascara",
        "city_ascii": "Mascara",
        "country": "Algeria",
        "iso2": "DZ",
        "iso3": "DZA",
        "lat": 35.40040895,
        "lng": 0.14003251,
        "pop": 108230,
        "province": "Mascara",
        "timezone": "Africa/Algiers"
    },
    {
        "city": "Mostaganem",
        "city_ascii": "Mostaganem",
        "country": "Algeria",
        "iso2": "DZ",
        "iso3": "DZA",
        "lat": 35.940376,
        "lng": 0.089983885,
        "pop": 159177,
        "province": "Mostaganem",
        "timezone": "Africa/Algiers"
    },
    {
        "city": "Saida",
        "city_ascii": "Saida",
        "country": "Algeria",
        "iso2": "DZ",
        "iso3": "DZA",
        "lat": 34.84039146,
        "lng": 0.14003251,
        "pop": 134855,
        "province": "Saïda",
        "timezone": "Africa/Algiers"
    },
    {
        "city": "Tiaret",
        "city_ascii": "Tiarat",
        "country": "Algeria",
        "iso2": "DZ",
        "iso3": "DZA",
        "lat": 35.38043601,
        "lng": 1.319960489,
        "pop": 184195,
        "province": "Tiaret",
        "timezone": "Africa/Algiers"
    },
    {
        "city": "Bejaia",
        "city_ascii": "Bejaia",
        "country": "Algeria",
        "iso2": "DZ",
        "iso3": "DZA",
        "lat": 36.76037762,
        "lng": 5.070015827,
        "pop": 274520,
        "province": "Béjaïa",
        "timezone": "Africa/Algiers"
    },
    {
        "city": "Blida",
        "city_ascii": "Blida",
        "country": "Algeria",
        "iso2": "DZ",
        "iso3": "DZA",
        "lat": 36.4203467,
        "lng": 2.829997517,
        "pop": 388174,
        "province": "Blida",
        "timezone": "Africa/Algiers"
    },
    {
        "city": "Bouira",
        "city_ascii": "Bouira",
        "country": "Algeria",
        "iso2": "DZ",
        "iso3": "DZA",
        "lat": 36.38047833,
        "lng": 3.900009724,
        "pop": 110144,
        "province": "Bouira",
        "timezone": "Africa/Algiers"
    },
    {
        "city": "Medea",
        "city_ascii": "Medea",
        "country": "Algeria",
        "iso2": "DZ",
        "iso3": "DZA",
        "lat": 36.27040753,
        "lng": 2.770001179,
        "pop": 145863.5,
        "province": "Médéa",
        "timezone": "Africa/Algiers"
    },
    {
        "city": "Souk Ahras",
        "city_ascii": "Souk Ahras",
        "country": "Algeria",
        "iso2": "DZ",
        "iso3": "DZA",
        "lat": 36.29038047,
        "lng": 7.949995075,
        "pop": 134947,
        "province": "Souk Ahras",
        "timezone": "Africa/Algiers"
    },
    {
        "city": "Tebessa",
        "city_ascii": "Tebessa",
        "country": "Algeria",
        "iso2": "DZ",
        "iso3": "DZA",
        "lat": 35.41043418,
        "lng": 8.120010537,
        "pop": 171742,
        "province": "Tébessa",
        "timezone": "Africa/Algiers"
    },
    {
        "city": "Adrar",
        "city_ascii": "Adrar",
        "country": "Algeria",
        "iso2": "DZ",
        "iso3": "DZA",
        "lat": 27.86999005,
        "lng": -0.289967083,
        "pop": 56910,
        "province": "Adrar",
        "timezone": "Africa/Algiers"
    },
    {
        "city": "Reggane",
        "city_ascii": "Reggane",
        "country": "Algeria",
        "iso2": "DZ",
        "iso3": "DZA",
        "lat": 26.69998395,
        "lng": 0.166645873,
        "pop": 22351.5,
        "province": "Adrar",
        "timezone": "Africa/Algiers"
    },
    {
        "city": "Bechar",
        "city_ascii": "Bechar",
        "country": "Algeria",
        "iso2": "DZ",
        "iso3": "DZA",
        "lat": 31.61110537,
        "lng": -2.230003704,
        "pop": 142415.5,
        "province": "Béchar",
        "timezone": "Africa/Algiers"
    },
    {
        "city": "Tindouf",
        "city_ascii": "Tindouf",
        "country": "Algeria",
        "iso2": "DZ",
        "iso3": "DZA",
        "lat": 27.67418805,
        "lng": -8.147782025,
        "pop": 18270,
        "province": "Tindouf",
        "timezone": "Africa/Algiers"
    },
    {
        "city": "Illizi",
        "city_ascii": "Illizi",
        "country": "Algeria",
        "iso2": "DZ",
        "iso3": "DZA",
        "lat": 26.48335634,
        "lng": 8.466604369,
        "pop": 7293,
        "province": "Illizi",
        "timezone": "Africa/Algiers"
    },
    {
        "city": "Arak",
        "city_ascii": "Arak",
        "country": "Algeria",
        "iso2": "DZ",
        "iso3": "DZA",
        "lat": 25.2799931,
        "lng": 3.749993041,
        "pop": 423251,
        "province": "Tamanghasset",
        "timezone": "Africa/Algiers"
    },
    {
        "city": "I-n-Salah",
        "city_ascii": "I-n-Salah",
        "country": "Algeria",
        "iso2": "DZ",
        "iso3": "DZA",
        "lat": 27.21664492,
        "lng": 2.466608845,
        "pop": 28632,
        "province": "Tamanghasset",
        "timezone": "Africa/Algiers"
    },
    {
        "city": "El Golea",
        "city_ascii": "El Golea",
        "country": "Algeria",
        "iso2": "DZ",
        "iso3": "DZA",
        "lat": 30.56662132,
        "lng": 2.883327595,
        "pop": 32049,
        "province": "Ghardaïa",
        "timezone": "Africa/Algiers"
    },
    {
        "city": "Laghouat",
        "city_ascii": "Laghouat",
        "country": "Algeria",
        "iso2": "DZ",
        "iso3": "DZA",
        "lat": 33.80998924,
        "lng": 2.880020303,
        "pop": 108279,
        "province": "Laghouat",
        "timezone": "Africa/Algiers"
    },
    {
        "city": "Touggourt",
        "city_ascii": "Touggourt",
        "country": "Algeria",
        "iso2": "DZ",
        "iso3": "DZA",
        "lat": 33.0999809,
        "lng": 6.05998124,
        "pop": 91499,
        "province": "Ouargla",
        "timezone": "Africa/Algiers"
    },
    {
        "city": "Ouargla",
        "city_ascii": "Ouargla",
        "country": "Algeria",
        "iso2": "DZ",
        "iso3": "DZA",
        "lat": 31.96997235,
        "lng": 5.340025186,
        "pop": 176271,
        "province": "Ouargla",
        "timezone": "Africa/Algiers"
    },
    {
        "city": "Biskra",
        "city_ascii": "Biskra",
        "country": "Algeria",
        "iso2": "DZ",
        "iso3": "DZA",
        "lat": 34.85997683,
        "lng": 5.73002722,
        "pop": 202103,
        "province": "Biskra",
        "timezone": "Africa/Algiers"
    },
    {
        "city": "Djelfa",
        "city_ascii": "Djelfa",
        "country": "Algeria",
        "iso2": "DZ",
        "iso3": "DZA",
        "lat": 34.67998781,
        "lng": 3.250023558,
        "pop": 170901,
        "province": "Djelfa",
        "timezone": "Africa/Algiers"
    },
    {
        "city": "Setif",
        "city_ascii": "Setif",
        "country": "Algeria",
        "iso2": "DZ",
        "iso3": "DZA",
        "lat": 36.18002545,
        "lng": 5.399969847,
        "pop": 274744,
        "province": "Sétif",
        "timezone": "Africa/Algiers"
    },
    {
        "city": "Batna",
        "city_ascii": "Batna",
        "country": "Algeria",
        "iso2": "DZ",
        "iso3": "DZA",
        "lat": 35.56995933,
        "lng": 6.170000365,
        "pop": 269467,
        "province": "Batna",
        "timezone": "Africa/Algiers"
    },
    {
        "city": "Annaba",
        "city_ascii": "Annaba",
        "country": "Algeria",
        "iso2": "DZ",
        "iso3": "DZA",
        "lat": 36.92000612,
        "lng": 7.759980834,
        "pop": 355047,
        "province": "Annaba",
        "timezone": "Africa/Algiers"
    },
    {
        "city": "Constantine",
        "city_ascii": "Constantine",
        "country": "Algeria",
        "iso2": "DZ",
        "iso3": "DZA",
        "lat": 36.35998863,
        "lng": 6.599948281,
        "pop": 527638,
        "province": "Constantine",
        "timezone": "Africa/Algiers"
    },
    {
        "city": "Oran",
        "city_ascii": "Oran",
        "country": "Algeria",
        "iso2": "DZ",
        "iso3": "DZA",
        "lat": 35.71000246,
        "lng": -0.61997278,
        "pop": 721992,
        "province": "Oran",
        "timezone": "Africa/Algiers"
    },
    {
        "city": "Tamanrasset",
        "city_ascii": "Tamanrasset",
        "country": "Algeria",
        "iso2": "DZ",
        "iso3": "DZA",
        "lat": 22.78500327,
        "lng": 5.522804727,
        "pop": 71808,
        "province": "Tamanghasset",
        "timezone": "Africa/Algiers"
    },
    {
        "city": "Ghardaia",
        "city_ascii": "Ghardaia",
        "country": "Algeria",
        "iso2": "DZ",
        "iso3": "DZA",
        "lat": 32.48999229,
        "lng": 3.669997923,
        "pop": 125480,
        "province": "Ghardaïa",
        "timezone": "Africa/Algiers"
    },
    {
        "city": "Algiers",
        "city_ascii": "Algiers",
        "country": "Algeria",
        "iso2": "DZ",
        "iso3": "DZA",
        "lat": 36.7630648,
        "lng": 3.05055253,
        "pop": 2665831.5,
        "province": "Alger",
        "timezone": "Africa/Algiers"
    },
    {
        "city": "Pago Pago",
        "city_ascii": "Pago Pago",
        "country": "American Samoa",
        "iso2": "AS",
        "iso3": "ASM",
        "lat": -14.2766105,
        "lng": -170.7066451,
        "pop": 12038,
        "province": "",
        "timezone": "Pacific/Pago_Pago"
    },
    {
        "city": "Andorra",
        "city_ascii": "Andorra",
        "country": "Andorra",
        "iso2": "AD",
        "iso3": "AND",
        "lat": 42.50000144,
        "lng": 1.516485961,
        "pop": 38127,
        "province": "",
        "timezone": "Europe/Andorra"
    },
    {
        "city": "Lucapa",
        "city_ascii": "Lucapa",
        "country": "Angola",
        "iso2": "AO",
        "iso3": "AGO",
        "lat": -8.419603659,
        "lng": 20.74001542,
        "pop": 25578,
        "province": "Lunda Norte",
        "timezone": "Africa/Luanda"
    },
    {
        "city": "Lunda Norte",
        "city_ascii": "Capenda-Camulemba",
        "country": "Angola",
        "iso2": "AO",
        "iso3": "AGO",
        "lat": -9.4195943,
        "lng": 18.43002722,
        "pop": 79842.5,
        "province": "Lunda Norte",
        "timezone": "Africa/Luanda"
    },
    {
        "city": "Saurimo",
        "city_ascii": "Saurimo",
        "country": "Angola",
        "iso2": "AO",
        "iso3": "AGO",
        "lat": -9.659579652,
        "lng": 20.39001094,
        "pop": 40907,
        "province": "Lunda Sul",
        "timezone": "Africa/Luanda"
    },
    {
        "city": "Lunda Sul",
        "city_ascii": "Muconda",
        "country": "Angola",
        "iso2": "AO",
        "iso3": "AGO",
        "lat": -10.59962563,
        "lng": 21.31998002,
        "pop": 2324,
        "province": "Lunda Sul",
        "timezone": "Africa/Luanda"
    },
    {
        "city": "Caxito",
        "city_ascii": "Caxito",
        "country": "Angola",
        "iso2": "AO",
        "iso3": "AGO",
        "lat": -8.579542217,
        "lng": 13.65998246,
        "pop": 15665.5,
        "province": "Bengo",
        "timezone": "Africa/Luanda"
    },
    {
        "city": "Camabatela",
        "city_ascii": "Camabatela",
        "country": "Angola",
        "iso2": "AO",
        "iso3": "AGO",
        "lat": -8.189591859,
        "lng": 15.37000728,
        "pop": 12731,
        "province": "Cuanza Norte",
        "timezone": "Africa/Luanda"
    },
    {
        "city": "Ndalatando",
        "city_ascii": "Ndalatando",
        "country": "Angola",
        "iso2": "AO",
        "iso3": "AGO",
        "lat": -9.299549948,
        "lng": 14.90998368,
        "pop": 8144,
        "province": "Cuanza Norte",
        "timezone": "Africa/Luanda"
    },
    {
        "city": "Quibala",
        "city_ascii": "Quibala",
        "country": "Angola",
        "iso2": "AO",
        "iso3": "AGO",
        "lat": -10.72959186,
        "lng": 14.97995357,
        "pop": 5248.5,
        "province": "Cuanza Sul",
        "timezone": "Africa/Luanda"
    },
    {
        "city": "Calulo",
        "city_ascii": "Calulo",
        "country": "Angola",
        "iso2": "AO",
        "iso3": "AGO",
        "lat": -9.999610577,
        "lng": 14.90001013,
        "pop": 795,
        "province": "Cuanza Sul",
        "timezone": "Africa/Luanda"
    },
    {
        "city": "Waku Kungo",
        "city_ascii": "Waku Kungo",
        "country": "Angola",
        "iso2": "AO",
        "iso3": "AGO",
        "lat": -11.35952757,
        "lng": 15.1199967,
        "pop": 11519.5,
        "province": "Cuanza Sul",
        "timezone": "Africa/Luanda"
    },
    {
        "city": "Songo",
        "city_ascii": "Songo",
        "country": "Angola",
        "iso2": "AO",
        "iso3": "AGO",
        "lat": -7.349591452,
        "lng": 14.84998734,
        "pop": 10579,
        "province": "Uíge",
        "timezone": "Africa/Luanda"
    },
    {
        "city": "Mbanza Congo",
        "city_ascii": "Mbanza-Congo",
        "country": "Angola",
        "iso2": "AO",
        "iso3": "AGO",
        "lat": -6.269605694,
        "lng": 14.23999874,
        "pop": 42201,
        "province": "Zaire",
        "timezone": "Africa/Luanda"
    },
    {
        "city": "Nzeto",
        "city_ascii": "Nzeto",
        "country": "Angola",
        "iso2": "AO",
        "iso3": "AGO",
        "lat": -7.229598776,
        "lng": 12.86003129,
        "pop": 19705.5,
        "province": "Zaire",
        "timezone": "Africa/Luanda"
    },
    {
        "city": "Soyo",
        "city_ascii": "Soyo",
        "country": "Angola",
        "iso2": "AO",
        "iso3": "AGO",
        "lat": -6.129614239,
        "lng": 12.36998368,
        "pop": 65329,
        "province": "Zaire",
        "timezone": "Africa/Luanda"
    },
    {
        "city": "Cabinda",
        "city_ascii": "Cabinda",
        "country": "Angola",
        "iso2": "AO",
        "iso3": "AGO",
        "lat": -5.55962319,
        "lng": 12.18999467,
        "pop": 78905.5,
        "province": "Cabinda",
        "timezone": "Africa/Luanda"
    },
    {
        "city": "Camacupa",
        "city_ascii": "Camacupa",
        "country": "Angola",
        "iso2": "AO",
        "iso3": "AGO",
        "lat": -12.01959064,
        "lng": 17.46998246,
        "pop": 19489,
        "province": "Bié",
        "timezone": "Africa/Luanda"
    },
    {
        "city": "Cubal",
        "city_ascii": "Cubal",
        "country": "Angola",
        "iso2": "AO",
        "iso3": "AGO",
        "lat": -13.03958006,
        "lng": 14.23999874,
        "pop": 4837,
        "province": "Benguela",
        "timezone": "Africa/Luanda"
    },
    {
        "city": "Ondjiva",
        "city_ascii": "Ondjiva",
        "country": "Angola",
        "iso2": "AO",
        "iso3": "AGO",
        "lat": -17.06961831,
        "lng": 15.73003699,
        "pop": 8748,
        "province": "Cunene",
        "timezone": "Africa/Luanda"
    },
    {
        "city": "Luau",
        "city_ascii": "Luau",
        "country": "Angola",
        "iso2": "AO",
        "iso3": "AGO",
        "lat": -10.7095414,
        "lng": 22.23000199,
        "pop": 9964,
        "province": "Moxico",
        "timezone": "Africa/Luanda"
    },
    {
        "city": "Dondo",
        "city_ascii": "Dondo",
        "country": "Angola",
        "iso2": "AO",
        "iso3": "AGO",
        "lat": -9.690017071,
        "lng": 14.43001298,
        "pop": 2353,
        "province": "Cuanza Norte",
        "timezone": "Africa/Luanda"
    },
    {
        "city": "Sumbe",
        "city_ascii": "Sumbe",
        "country": "Angola",
        "iso2": "AO",
        "iso3": "AGO",
        "lat": -11.21002765,
        "lng": 13.8499967,
        "pop": 29638.5,
        "province": "Cuanza Sul",
        "timezone": "Africa/Luanda"
    },
    {
        "city": "Uige",
        "city_ascii": "Uige",
        "country": "Angola",
        "iso2": "AO",
        "iso3": "AGO",
        "lat": -7.620014222,
        "lng": 15.04997514,
        "pop": 56787.5,
        "province": "Uíge",
        "timezone": "Africa/Luanda"
    },
    {
        "city": "Kuito",
        "city_ascii": "Kuito",
        "country": "Angola",
        "iso2": "AO",
        "iso3": "AGO",
        "lat": -12.38003375,
        "lng": 16.93998897,
        "pop": 113955,
        "province": "Bié",
        "timezone": "Africa/Luanda"
    },
    {
        "city": "Lobito",
        "city_ascii": "Lobito",
        "country": "Angola",
        "iso2": "AO",
        "iso3": "AGO",
        "lat": -12.37000853,
        "lng": 13.54123002,
        "pop": 170733,
        "province": "Benguela",
        "timezone": "Africa/Luanda"
    },
    {
        "city": "Luena",
        "city_ascii": "Luena",
        "country": "Angola",
        "iso2": "AO",
        "iso3": "AGO",
        "lat": -11.79004393,
        "lng": 19.90001501,
        "pop": 17276.5,
        "province": "Moxico",
        "timezone": "Africa/Luanda"
    },
    {
        "city": "Malanje",
        "city_ascii": "Malanje",
        "country": "Angola",
        "iso2": "AO",
        "iso3": "AGO",
        "lat": -9.540000388,
        "lng": 16.34002559,
        "pop": 106451,
        "province": "Malanje",
        "timezone": "Africa/Luanda"
    },
    {
        "city": "Benguela",
        "city_ascii": "Benguela",
        "country": "Angola",
        "iso2": "AO",
        "iso3": "AGO",
        "lat": -12.57826455,
        "lng": 13.40723303,
        "pop": 142017,
        "province": "Benguela",
        "timezone": "Africa/Luanda"
    },
    {
        "city": "Lubango",
        "city_ascii": "Lubango",
        "country": "Angola",
        "iso2": "AO",
        "iso3": "AGO",
        "lat": -14.91000853,
        "lng": 13.49001868,
        "pop": 114086.5,
        "province": "Huíla",
        "timezone": "Africa/Luanda"
    },
    {
        "city": "Namibe",
        "city_ascii": "Namibe",
        "country": "Angola",
        "iso2": "AO",
        "iso3": "AGO",
        "lat": -15.19004311,
        "lng": 12.16002234,
        "pop": 128130.5,
        "province": "Namibe",
        "timezone": "Africa/Luanda"
    },
    {
        "city": "Menongue",
        "city_ascii": "Menongue",
        "country": "Angola",
        "iso2": "AO",
        "iso3": "AGO",
        "lat": -14.66661253,
        "lng": 17.69999426,
        "pop": 13030,
        "province": "Cuando Cubango",
        "timezone": "Africa/Luanda"
    },
    {
        "city": "Huambo",
        "city_ascii": "Huambo",
        "country": "Angola",
        "iso2": "AO",
        "iso3": "AGO",
        "lat": -12.74998533,
        "lng": 15.76000932,
        "pop": 986000,
        "province": "Huambo",
        "timezone": "Africa/Luanda"
    },
    {
        "city": "Luanda",
        "city_ascii": "Luanda",
        "country": "Angola",
        "iso2": "AO",
        "iso3": "AGO",
        "lat": -8.838286114,
        "lng": 13.23442704,
        "pop": 3562086,
        "province": "Luanda",
        "timezone": "Africa/Luanda"
    },
    {
        "city": "Saint John's",
        "city_ascii": "Saint John's",
        "country": "Antigua and Barbuda",
        "iso2": "AG",
        "iso3": "ATG",
        "lat": 17.11803652,
        "lng": -61.85003382,
        "pop": 29862.5,
        "province": "",
        "timezone": "America/Antigua"
    },
    {
        "city": "28 de Noviembre",
        "city_ascii": "28 de Noviembre",
        "country": "Argentina",
        "iso2": "AR",
        "iso3": "ARG",
        "lat": -51.65003986,
        "lng": -72.30001612,
        "pop": 5300,
        "province": "Santa Cruz",
        "timezone": "America/Santiago"
    },
    {
        "city": "Gobernador Gregores",
        "city_ascii": "Gobernador Gregores",
        "country": "Argentina",
        "iso2": "AR",
        "iso3": "ARG",
        "lat": -48.76659829,
        "lng": -70.25001205,
        "pop": 2519,
        "province": "Santa Cruz",
        "timezone": "America/Argentina/Rio_Gallegos"
    },
    {
        "city": "El Maiten",
        "city_ascii": "El Maiten",
        "country": "Argentina",
        "iso2": "AR",
        "iso3": "ARG",
        "lat": -42.05000568,
        "lng": -71.16662276,
        "pop": 4269,
        "province": "Chubut",
        "timezone": "America/Argentina/Catamarca"
    },
    {
        "city": "Puerto Madryn",
        "city_ascii": "Puerto Madryn",
        "country": "Argentina",
        "iso2": "AR",
        "iso3": "ARG",
        "lat": -42.77001341,
        "lng": -65.04001998,
        "pop": 61159,
        "province": "Chubut",
        "timezone": "America/Argentina/Catamarca"
    },
    {
        "city": "Trelew",
        "city_ascii": "Trelew",
        "country": "Argentina",
        "iso2": "AR",
        "iso3": "ARG",
        "lat": -43.25003579,
        "lng": -65.3299506,
        "pop": 93128.5,
        "province": "Chubut",
        "timezone": "America/Argentina/Catamarca"
    },
    {
        "city": "Las Heras",
        "city_ascii": "Las Heras",
        "country": "Argentina",
        "iso2": "AR",
        "iso3": "ARG",
        "lat": -32.82503904,
        "lng": -68.80167668,
        "pop": 66663,
        "province": "Mendoza",
        "timezone": "America/Argentina/Mendoza"
    },
    {
        "city": "San Martin",
        "city_ascii": "San Martin",
        "country": "Argentina",
        "iso2": "AR",
        "iso3": "ARG",
        "lat": -33.06998533,
        "lng": -68.49001612,
        "pop": 99974,
        "province": "Mendoza",
        "timezone": "America/Argentina/Mendoza"
    },
    {
        "city": "Uspallata",
        "city_ascii": "Uspallata",
        "country": "Argentina",
        "iso2": "AR",
        "iso3": "ARG",
        "lat": -32.59311522,
        "lng": -69.34598454,
        "pop": 2390,
        "province": "Mendoza",
        "timezone": "America/Argentina/Mendoza"
    },
    {
        "city": "Cutral Co",
        "city_ascii": "Cutral Co",
        "country": "Argentina",
        "iso2": "AR",
        "iso3": "ARG",
        "lat": -38.94001463,
        "lng": -69.24002202,
        "pop": 47597,
        "province": "Neuquén",
        "timezone": "America/Argentina/Salta"
    },
    {
        "city": "Punta Alta",
        "city_ascii": "Punta Alta",
        "country": "Argentina",
        "iso2": "AR",
        "iso3": "ARG",
        "lat": -38.87996662,
        "lng": -62.0799681,
        "pop": 55969.5,
        "province": "Ciudad de Buenos Aires",
        "timezone": "America/Argentina/Buenos_Aires"
    },
    {
        "city": "San Nicolas",
        "city_ascii": "San Nicolas",
        "country": "Argentina",
        "iso2": "AR",
        "iso3": "ARG",
        "lat": -33.33002114,
        "lng": -60.24000289,
        "pop": 117123.5,
        "province": "Ciudad de Buenos Aires",
        "timezone": "America/Argentina/Buenos_Aires"
    },
    {
        "city": "Campana",
        "city_ascii": "Campana",
        "country": "Argentina",
        "iso2": "AR",
        "iso3": "ARG",
        "lat": -34.15999632,
        "lng": -58.95997766,
        "pop": 77149.5,
        "province": "Ciudad de Buenos Aires",
        "timezone": "America/Argentina/Buenos_Aires"
    },
    {
        "city": "Chacabuco",
        "city_ascii": "Chacabuco",
        "country": "Argentina",
        "iso2": "AR",
        "iso3": "ARG",
        "lat": -34.65004393,
        "lng": -60.48998763,
        "pop": 26645,
        "province": "Ciudad de Buenos Aires",
        "timezone": "America/Argentina/Buenos_Aires"
    },
    {
        "city": "Mercedes",
        "city_ascii": "Mercedes",
        "country": "Argentina",
        "iso2": "AR",
        "iso3": "ARG",
        "lat": -34.66001748,
        "lng": -59.44002588,
        "pop": 48408.5,
        "province": "Ciudad de Buenos Aires",
        "timezone": "America/Argentina/Buenos_Aires"
    },
    {
        "city": "Lincoln",
        "city_ascii": "Lincoln",
        "country": "Argentina",
        "iso2": "AR",
        "iso3": "ARG",
        "lat": -34.88000405,
        "lng": -61.53994938,
        "pop": 19924,
        "province": "Ciudad de Buenos Aires",
        "timezone": "America/Argentina/Buenos_Aires"
    },
    {
        "city": "Chivilcoy",
        "city_ascii": "Chivilcoy",
        "country": "Argentina",
        "iso2": "AR",
        "iso3": "ARG",
        "lat": -34.89995115,
        "lng": -60.03998926,
        "pop": 43719,
        "province": "Ciudad de Buenos Aires",
        "timezone": "America/Argentina/Buenos_Aires"
    },
    {
        "city": "Veinticinco de Mayo",
        "city_ascii": "Veinticinco de Mayo",
        "country": "Argentina",
        "iso2": "AR",
        "iso3": "ARG",
        "lat": -35.42999632,
        "lng": -60.17998071,
        "pop": 18749,
        "province": "Ciudad de Buenos Aires",
        "timezone": "America/Argentina/Buenos_Aires"
    },
    {
        "city": "Nueve de Julio",
        "city_ascii": "Nueve de Julio",
        "country": "Argentina",
        "iso2": "AR",
        "iso3": "ARG",
        "lat": -35.44596434,
        "lng": -60.88998906,
        "pop": 26716,
        "province": "Ciudad de Buenos Aires",
        "timezone": "America/Argentina/Buenos_Aires"
    },
    {
        "city": "Dolores",
        "city_ascii": "Dolores",
        "country": "Argentina",
        "iso2": "AR",
        "iso3": "ARG",
        "lat": -36.33004474,
        "lng": -57.68997766,
        "pop": 21586.5,
        "province": "Ciudad de Buenos Aires",
        "timezone": "America/Argentina/Buenos_Aires"
    },
    {
        "city": "Pedro Luro",
        "city_ascii": "Pedro Luro",
        "country": "Argentina",
        "iso2": "AR",
        "iso3": "ARG",
        "lat": -39.48334064,
        "lng": -62.68331629,
        "pop": 7100,
        "province": "Ciudad de Buenos Aires",
        "timezone": "America/Argentina/Buenos_Aires"
    },
    {
        "city": "Tres Arroyos",
        "city_ascii": "Tres Arroyos",
        "country": "Argentina",
        "iso2": "AR",
        "iso3": "ARG",
        "lat": -38.3699719,
        "lng": -60.26994938,
        "pop": 34773.5,
        "province": "Ciudad de Buenos Aires",
        "timezone": "America/Argentina/Buenos_Aires"
    },
    {
        "city": "Coronel Suarez",
        "city_ascii": "Coronel Suarez",
        "country": "Argentina",
        "iso2": "AR",
        "iso3": "ARG",
        "lat": -37.46661619,
        "lng": -61.9166189,
        "pop": 20713,
        "province": "Ciudad de Buenos Aires",
        "timezone": "America/Argentina/Buenos_Aires"
    },
    {
        "city": "Balcarce",
        "city_ascii": "Balcarce",
        "country": "Argentina",
        "iso2": "AR",
        "iso3": "ARG",
        "lat": -37.83331216,
        "lng": -58.24999516,
        "pop": 18967,
        "province": "Ciudad de Buenos Aires",
        "timezone": "America/Argentina/Buenos_Aires"
    },
    {
        "city": "25 de Mayo",
        "city_ascii": "25 de Mayo",
        "country": "Argentina",
        "iso2": "AR",
        "iso3": "ARG",
        "lat": -37.80003253,
        "lng": -67.68329533,
        "pop": 17430,
        "province": "Río Negro",
        "timezone": "America/Argentina/Salta"
    },
    {
        "city": "General Roca",
        "city_ascii": "General Roca",
        "country": "Argentina",
        "iso2": "AR",
        "iso3": "ARG",
        "lat": -39.01995807,
        "lng": -67.60996647,
        "pop": 38578,
        "province": "Río Negro",
        "timezone": "America/Argentina/Salta"
    },
    {
        "city": "Comallo",
        "city_ascii": "Comallo",
        "country": "Argentina",
        "iso2": "AR",
        "iso3": "ARG",
        "lat": -41.03332355,
        "lng": -70.26657434,
        "pop": 741,
        "province": "Río Negro",
        "timezone": "America/Argentina/Salta"
    },
    {
        "city": "Ingeniero Jacobacci",
        "city_ascii": "Ingeniero Jacobacci",
        "country": "Argentina",
        "iso2": "AR",
        "iso3": "ARG",
        "lat": -41.30002562,
        "lng": -69.58330855,
        "pop": 5719,
        "province": "Río Negro",
        "timezone": "America/Argentina/Salta"
    },
    {
        "city": "General Conesa",
        "city_ascii": "General Conesa",
        "country": "Argentina",
        "iso2": "AR",
        "iso3": "ARG",
        "lat": -40.10004718,
        "lng": -64.43328699,
        "pop": 2958,
        "province": "Río Negro",
        "timezone": "America/Argentina/Salta"
    },
    {
        "city": "Choele Choel",
        "city_ascii": "Choele Choel",
        "country": "Argentina",
        "iso2": "AR",
        "iso3": "ARG",
        "lat": -39.26660968,
        "lng": -65.68331405,
        "pop": 9895.5,
        "province": "Río Negro",
        "timezone": "America/Argentina/Salta"
    },
    {
        "city": "San Francisco",
        "city_ascii": "San Francisco",
        "country": "Argentina",
        "iso2": "AR",
        "iso3": "ARG",
        "lat": -31.43003375,
        "lng": -62.08996749,
        "pop": 43231,
        "province": "Córdoba",
        "timezone": "America/Argentina/Cordoba"
    },
    {
        "city": "Alta Gracia",
        "city_ascii": "Alta Gracia",
        "country": "Argentina",
        "iso2": "AR",
        "iso3": "ARG",
        "lat": -31.65999388,
        "lng": -64.4299797,
        "pop": 30593,
        "province": "Córdoba",
        "timezone": "America/Argentina/Cordoba"
    },
    {
        "city": "Villa Maria",
        "city_ascii": "Villa Maria",
        "country": "Argentina",
        "iso2": "AR",
        "iso3": "ARG",
        "lat": -32.41002562,
        "lng": -63.26002527,
        "pop": 76701,
        "province": "Córdoba",
        "timezone": "America/Argentina/Cordoba"
    },
    {
        "city": "Bell Ville",
        "city_ascii": "Bell Ville",
        "country": "Argentina",
        "iso2": "AR",
        "iso3": "ARG",
        "lat": -32.60003986,
        "lng": -62.67995732,
        "pop": 29605,
        "province": "Córdoba",
        "timezone": "America/Argentina/Cordoba"
    },
    {
        "city": "Villa Rumipal",
        "city_ascii": "Villa Rumipal",
        "country": "Argentina",
        "iso2": "AR",
        "iso3": "ARG",
        "lat": -32.18332111,
        "lng": -64.48328394,
        "pop": 1269,
        "province": "Córdoba",
        "timezone": "America/Argentina/Cordoba"
    },
    {
        "city": "Villa Carlos Paz",
        "city_ascii": "Villa Carlos Paz",
        "country": "Argentina",
        "iso2": "AR",
        "iso3": "ARG",
        "lat": -31.42000853,
        "lng": -64.50000126,
        "pop": 60256,
        "province": "Córdoba",
        "timezone": "America/Argentina/Cordoba"
    },
    {
        "city": "Chumbicha",
        "city_ascii": "Chumbicha",
        "country": "Argentina",
        "iso2": "AR",
        "iso3": "ARG",
        "lat": -28.86662433,
        "lng": -66.23330632,
        "pop": 2572,
        "province": "Catamarca",
        "timezone": "America/Argentina/Catamarca"
    },
    {
        "city": "Tinogasta",
        "city_ascii": "Tinogasta",
        "country": "Argentina",
        "iso2": "AR",
        "iso3": "ARG",
        "lat": -28.06662148,
        "lng": -67.56658411,
        "pop": 587,
        "province": "Catamarca",
        "timezone": "America/Argentina/Catamarca"
    },
    {
        "city": "Abra Pampa",
        "city_ascii": "Abra Pampa",
        "country": "Argentina",
        "iso2": "AR",
        "iso3": "ARG",
        "lat": -22.7166638,
        "lng": -65.6999797,
        "pop": 4480,
        "province": "Jujuy",
        "timezone": "America/Argentina/Jujuy"
    },
    {
        "city": "Humahuaca",
        "city_ascii": "Humahuaca",
        "country": "Argentina",
        "iso2": "AR",
        "iso3": "ARG",
        "lat": -23.19999347,
        "lng": -65.34994938,
        "pop": 11369,
        "province": "Jujuy",
        "timezone": "America/Argentina/Jujuy"
    },
    {
        "city": "Chepes",
        "city_ascii": "Chepes",
        "country": "Argentina",
        "iso2": "AR",
        "iso3": "ARG",
        "lat": -31.34998696,
        "lng": -66.5999506,
        "pop": 6020,
        "province": "La Rioja",
        "timezone": "America/Argentina/La_Rioja"
    },
    {
        "city": "Yacuiba",
        "city_ascii": "Yacuiba",
        "country": "Argentina",
        "iso2": "AR",
        "iso3": "ARG",
        "lat": -22.03003904,
        "lng": -63.69999841,
        "pop": 64811,
        "province": "Salta",
        "timezone": "America/Argentina/Salta"
    },
    {
        "city": "Tartagal",
        "city_ascii": "Tartagal",
        "country": "Argentina",
        "iso2": "AR",
        "iso3": "ARG",
        "lat": -22.55000731,
        "lng": -63.81001754,
        "pop": 59996.5,
        "province": "Salta",
        "timezone": "America/Argentina/Salta"
    },
    {
        "city": "Joaquin V. Gonzalez",
        "city_ascii": "Joaquin V. Gonzalez",
        "country": "Argentina",
        "iso2": "AR",
        "iso3": "ARG",
        "lat": -25.08334105,
        "lng": -64.18335392,
        "pop": 13376,
        "province": "Salta",
        "timezone": "America/Argentina/Salta"
    },
    {
        "city": "Trancas",
        "city_ascii": "Trancas",
        "country": "Argentina",
        "iso2": "AR",
        "iso3": "ARG",
        "lat": -26.21665688,
        "lng": -65.28331262,
        "pop": 1599,
        "province": "Tucumán",
        "timezone": "America/Argentina/Tucuman"
    },
    {
        "city": "Presidencia Roque Saenz Pena",
        "city_ascii": "Presidencia Roque Saenz Pena",
        "country": "Argentina",
        "iso2": "AR",
        "iso3": "ARG",
        "lat": -26.7900069,
        "lng": -60.45001591,
        "pop": 75958,
        "province": "Chaco",
        "timezone": "America/Argentina/Cordoba"
    },
    {
        "city": "Pampa del Infierno",
        "city_ascii": "Pampa del Infierno",
        "country": "Argentina",
        "iso2": "AR",
        "iso3": "ARG",
        "lat": -26.51658689,
        "lng": -61.16658716,
        "pop": 2921,
        "province": "Chaco",
        "timezone": "America/Argentina/Cordoba"
    },
    {
        "city": "Villa Angela",
        "city_ascii": "Villa Angela",
        "country": "Argentina",
        "iso2": "AR",
        "iso3": "ARG",
        "lat": -27.58329181,
        "lng": -60.7166663,
        "pop": 30051,
        "province": "Chaco",
        "timezone": "America/Argentina/Cordoba"
    },
    {
        "city": "Ingeniero Guillermo N. Juarez",
        "city_ascii": "Ingeniero Guillermo N. Juarez",
        "country": "Argentina",
        "iso2": "AR",
        "iso3": "ARG",
        "lat": -23.90000242,
        "lng": -61.84998214,
        "pop": 6453,
        "province": "Formosa",
        "timezone": "America/Argentina/Cordoba"
    },
    {
        "city": "Comandante Fontana",
        "city_ascii": "Comandante Fontana",
        "country": "Argentina",
        "iso2": "AR",
        "iso3": "ARG",
        "lat": -25.33329995,
        "lng": -59.68331852,
        "pop": 4277,
        "province": "Formosa",
        "timezone": "America/Argentina/Cordoba"
    },
    {
        "city": "San Lorenzo",
        "city_ascii": "San Lorenzo",
        "country": "Argentina",
        "iso2": "AR",
        "iso3": "ARG",
        "lat": -28.12000324,
        "lng": -58.76998926,
        "pop": 25833.5,
        "province": "Corrientes",
        "timezone": "America/Argentina/Cordoba"
    },
    {
        "city": "Corrientes",
        "city_ascii": "Corrientes",
        "country": "Argentina",
        "iso2": "AR",
        "iso3": "ARG",
        "lat": -27.48996417,
        "lng": -58.80998682,
        "pop": 339945,
        "province": "Corrientes",
        "timezone": "America/Argentina/Cordoba"
    },
    {
        "city": "Concepcion del Uruguay",
        "city_ascii": "Concepcion del Uruguay",
        "country": "Argentina",
        "iso2": "AR",
        "iso3": "ARG",
        "lat": -32.47999551,
        "lng": -58.23999577,
        "pop": 48275,
        "province": "Entre Ríos",
        "timezone": "America/Argentina/Cordoba"
    },
    {
        "city": "Victoria",
        "city_ascii": "Victoria",
        "country": "Argentina",
        "iso2": "AR",
        "iso3": "ARG",
        "lat": -32.61001341,
        "lng": -60.17998071,
        "pop": 20032.5,
        "province": "Entre Ríos",
        "timezone": "America/Argentina/Cordoba"
    },
    {
        "city": "Gualeguay",
        "city_ascii": "Gualeguay",
        "country": "Argentina",
        "iso2": "AR",
        "iso3": "ARG",
        "lat": -33.15003213,
        "lng": -59.34000615,
        "pop": 25913,
        "province": "Entre Ríos",
        "timezone": "America/Argentina/Cordoba"
    },
    {
        "city": "Parana",
        "city_ascii": "Parana",
        "country": "Argentina",
        "iso2": "AR",
        "iso3": "ARG",
        "lat": -31.73332273,
        "lng": -60.53334416,
        "pop": 226852,
        "province": "Entre Ríos",
        "timezone": "America/Argentina/Cordoba"
    },
    {
        "city": "Villa Constitucion",
        "city_ascii": "Villa Constitucion",
        "country": "Argentina",
        "iso2": "AR",
        "iso3": "ARG",
        "lat": -33.23002724,
        "lng": -60.35002202,
        "pop": 30282.5,
        "province": "Santa Fe",
        "timezone": "America/Argentina/Cordoba"
    },
    {
        "city": "Rafaela",
        "city_ascii": "Rafaela",
        "country": "Argentina",
        "iso2": "AR",
        "iso3": "ARG",
        "lat": -31.25004474,
        "lng": -61.49997766,
        "pop": 69649,
        "province": "Santa Fe",
        "timezone": "America/Argentina/Cordoba"
    },
    {
        "city": "Eldorado",
        "city_ascii": "Eldorado",
        "country": "Argentina",
        "iso2": "AR",
        "iso3": "ARG",
        "lat": -26.20001707,
        "lng": -54.59998539,
        "pop": 17365,
        "province": "Misiones",
        "timezone": "America/Argentina/Cordoba"
    },
    {
        "city": "Rodeo",
        "city_ascii": "Rodeo",
        "country": "Argentina",
        "iso2": "AR",
        "iso3": "ARG",
        "lat": -30.21558592,
        "lng": -69.1399506,
        "pop": 701,
        "province": "San Juan",
        "timezone": "America/Argentina/San_Juan"
    },
    {
        "city": "Tunuyan",
        "city_ascii": "Tunuyan",
        "country": "Argentina",
        "iso2": "AR",
        "iso3": "ARG",
        "lat": -33.56618244,
        "lng": -69.01667647,
        "pop": 22834,
        "province": "Mendoza",
        "timezone": "America/Argentina/Mendoza"
    },
    {
        "city": "La Paz",
        "city_ascii": "La Paz",
        "country": "Argentina",
        "iso2": "AR",
        "iso3": "ARG",
        "lat": -33.46613686,
        "lng": -67.54999597,
        "pop": 4400,
        "province": "Mendoza",
        "timezone": "America/Argentina/Mendoza"
    },
    {
        "city": "Chos Malal",
        "city_ascii": "Chos Malal",
        "country": "Argentina",
        "iso2": "AR",
        "iso3": "ARG",
        "lat": -37.38295205,
        "lng": -70.26657434,
        "pop": 8556,
        "province": "Neuquén",
        "timezone": "America/Argentina/Salta"
    },
    {
        "city": "Las Lajas",
        "city_ascii": "Las Lajas",
        "country": "Argentina",
        "iso2": "AR",
        "iso3": "ARG",
        "lat": -38.51626788,
        "lng": -70.36659408,
        "pop": 1218,
        "province": "Neuquén",
        "timezone": "America/Argentina/Salta"
    },
    {
        "city": "Zarate",
        "city_ascii": "Zarate",
        "country": "Argentina",
        "iso2": "AR",
        "iso3": "ARG",
        "lat": -34.08956134,
        "lng": -59.04002446,
        "pop": 86192,
        "province": "Ciudad de Buenos Aires",
        "timezone": "America/Argentina/Buenos_Aires"
    },
    {
        "city": "Carhue",
        "city_ascii": "Carhue",
        "country": "Argentina",
        "iso2": "AR",
        "iso3": "ARG",
        "lat": -37.1828609,
        "lng": -62.73331323,
        "pop": 7190,
        "province": "Ciudad de Buenos Aires",
        "timezone": "America/Argentina/Buenos_Aires"
    },
    {
        "city": "Darregueira",
        "city_ascii": "Darregueira",
        "country": "Argentina",
        "iso2": "AR",
        "iso3": "ARG",
        "lat": -37.69957355,
        "lng": -63.16659428,
        "pop": 3412,
        "province": "Ciudad de Buenos Aires",
        "timezone": "America/Argentina/Buenos_Aires"
    },
    {
        "city": "Juarez",
        "city_ascii": "Juarez",
        "country": "Argentina",
        "iso2": "AR",
        "iso3": "ARG",
        "lat": -37.66551878,
        "lng": -59.80002975,
        "pop": 10609,
        "province": "Ciudad de Buenos Aires",
        "timezone": "America/Argentina/Buenos_Aires"
    },
    {
        "city": "Lobos",
        "city_ascii": "Lobos",
        "country": "Argentina",
        "iso2": "AR",
        "iso3": "ARG",
        "lat": -35.184895,
        "lng": -59.09467228,
        "pop": 18278,
        "province": "Ciudad de Buenos Aires",
        "timezone": "America/Argentina/Buenos_Aires"
    },
    {
        "city": "Chascomus",
        "city_ascii": "Chascomus",
        "country": "Argentina",
        "iso2": "AR",
        "iso3": "ARG",
        "lat": -35.56621539,
        "lng": -58.01662439,
        "pop": 21054,
        "province": "Ciudad de Buenos Aires",
        "timezone": "America/Argentina/Buenos_Aires"
    },
    {
        "city": "Junin",
        "city_ascii": "Junin",
        "country": "Argentina",
        "iso2": "AR",
        "iso3": "ARG",
        "lat": -34.58456989,
        "lng": -60.95887374,
        "pop": 66141.5,
        "province": "Ciudad de Buenos Aires",
        "timezone": "America/Argentina/Buenos_Aires"
    },
    {
        "city": "La Plata",
        "city_ascii": "La Plata",
        "country": "Argentina",
        "iso2": "AR",
        "iso3": "ARG",
        "lat": -34.90961465,
        "lng": -57.95996118,
        "pop": 440388.5,
        "province": "Ciudad de Buenos Aires",
        "timezone": "America/Argentina/Buenos_Aires"
    },
    {
        "city": "Pergamino",
        "city_ascii": "Pergamino",
        "country": "Argentina",
        "iso2": "AR",
        "iso3": "ARG",
        "lat": -33.89959878,
        "lng": -60.56998275,
        "pop": 71448,
        "province": "Ciudad de Buenos Aires",
        "timezone": "America/Argentina/Buenos_Aires"
    },
    {
        "city": "Lujan",
        "city_ascii": "Lujan",
        "country": "Argentina",
        "iso2": "AR",
        "iso3": "ARG",
        "lat": -34.57960895,
        "lng": -59.10999435,
        "pop": 69744.5,
        "province": "Ciudad de Buenos Aires",
        "timezone": "America/Argentina/Buenos_Aires"
    },
    {
        "city": "Azul",
        "city_ascii": "Azul",
        "country": "Argentina",
        "iso2": "AR",
        "iso3": "ARG",
        "lat": -36.7796297,
        "lng": -59.86999964,
        "pop": 43407.5,
        "province": "Ciudad de Buenos Aires",
        "timezone": "America/Argentina/Buenos_Aires"
    },
    {
        "city": "Villalonga",
        "city_ascii": "Villalonga",
        "country": "Argentina",
        "iso2": "AR",
        "iso3": "ARG",
        "lat": -39.88285114,
        "lng": -62.58332239,
        "pop": 2838,
        "province": "Ciudad de Buenos Aires",
        "timezone": "America/Argentina/Buenos_Aires"
    },
    {
        "city": "Victorica",
        "city_ascii": "Victorica",
        "country": "Argentina",
        "iso2": "AR",
        "iso3": "ARG",
        "lat": -36.21625324,
        "lng": -65.45002079,
        "pop": 4458,
        "province": "La Pampa",
        "timezone": "America/Argentina/Salta"
    },
    {
        "city": "General Pico",
        "city_ascii": "General Pico",
        "country": "Argentina",
        "iso2": "AR",
        "iso3": "ARG",
        "lat": -35.65959471,
        "lng": -63.77001998,
        "pop": 46483,
        "province": "La Pampa",
        "timezone": "America/Argentina/Salta"
    },
    {
        "city": "San Antonio Oeste",
        "city_ascii": "San Antonio Oeste",
        "country": "Argentina",
        "iso2": "AR",
        "iso3": "ARG",
        "lat": -40.73287677,
        "lng": -64.93328231,
        "pop": 8492,
        "province": "Río Negro",
        "timezone": "America/Argentina/Salta"
    },
    {
        "city": "Mercedes",
        "city_ascii": "Mercedes",
        "country": "Argentina",
        "iso2": "AR",
        "iso3": "ARG",
        "lat": -33.68958576,
        "lng": -65.4699679,
        "pop": 49345,
        "province": "San Luis",
        "timezone": "America/Argentina/San_Luis"
    },
    {
        "city": "Rio Tercero",
        "city_ascii": "Rio Tercero",
        "country": "Argentina",
        "iso2": "AR",
        "iso3": "ARG",
        "lat": -32.1796004,
        "lng": -64.12002446,
        "pop": 38049.5,
        "province": "Córdoba",
        "timezone": "America/Argentina/Cordoba"
    },
    {
        "city": "Belen",
        "city_ascii": "Belen",
        "country": "Argentina",
        "iso2": "AR",
        "iso3": "ARG",
        "lat": -27.64959267,
        "lng": -67.03328333,
        "pop": 11359,
        "province": "Catamarca",
        "timezone": "America/Argentina/Catamarca"
    },
    {
        "city": "Rinconada",
        "city_ascii": "Rinconada",
        "country": "Argentina",
        "iso2": "AR",
        "iso3": "ARG",
        "lat": -22.43290851,
        "lng": -66.16659204,
        "pop": 6209.5,
        "province": "Jujuy",
        "timezone": "America/Argentina/Jujuy"
    },
    {
        "city": "San Pedro",
        "city_ascii": "San Pedro",
        "country": "Argentina",
        "iso2": "AR",
        "iso3": "ARG",
        "lat": -24.21962116,
        "lng": -64.87000452,
        "pop": 55249,
        "province": "Jujuy",
        "timezone": "America/Argentina/Jujuy"
    },
    {
        "city": "Libertador General San Martin",
        "city_ascii": "Libertador General San Martin",
        "country": "Argentina",
        "iso2": "AR",
        "iso3": "ARG",
        "lat": -23.81954222,
        "lng": -64.78998356,
        "pop": 47559,
        "province": "Jujuy",
        "timezone": "America/Argentina/Jujuy"
    },
    {
        "city": "Chamical",
        "city_ascii": "Chamical",
        "country": "Argentina",
        "iso2": "AR",
        "iso3": "ARG",
        "lat": -30.34958291,
        "lng": -66.3166604,
        "pop": 8989,
        "province": "La Rioja",
        "timezone": "America/Argentina/La_Rioja"
    },
    {
        "city": "Los Blancos",
        "city_ascii": "Los Blancos",
        "country": "Argentina",
        "iso2": "AR",
        "iso3": "ARG",
        "lat": -23.59960732,
        "lng": -62.60003972,
        "pop": 1145,
        "province": "Salta",
        "timezone": "America/Argentina/Salta"
    },
    {
        "city": "Cafayate",
        "city_ascii": "Cafayate",
        "country": "Argentina",
        "iso2": "AR",
        "iso3": "ARG",
        "lat": -26.08291828,
        "lng": -65.96660425,
        "pop": 9478,
        "province": "Salta",
        "timezone": "America/Argentina/Salta"
    },
    {
        "city": "Cerrillos",
        "city_ascii": "Cerrillos",
        "country": "Argentina",
        "iso2": "AR",
        "iso3": "ARG",
        "lat": -24.89963133,
        "lng": -65.48330042,
        "pop": 11498,
        "province": "Salta",
        "timezone": "America/Argentina/Salta"
    },
    {
        "city": "San Antonio de los Cobres",
        "city_ascii": "San Antonio de los Cobres",
        "country": "Argentina",
        "iso2": "AR",
        "iso3": "ARG",
        "lat": -24.18293089,
        "lng": -66.35001754,
        "pop": 4000,
        "province": "Salta",
        "timezone": "America/Argentina/Salta"
    },
    {
        "city": "Anatuya",
        "city_ascii": "Anatuya",
        "country": "Argentina",
        "iso2": "AR",
        "iso3": "ARG",
        "lat": -28.46613198,
        "lng": -62.83330713,
        "pop": 14133,
        "province": "Santiago del Estero",
        "timezone": "America/Argentina/Cordoba"
    },
    {
        "city": "Frias",
        "city_ascii": "Frias",
        "country": "Argentina",
        "iso2": "AR",
        "iso3": "ARG",
        "lat": -28.64958331,
        "lng": -65.14998743,
        "pop": 13594,
        "province": "Santiago del Estero",
        "timezone": "America/Argentina/Catamarca"
    },
    {
        "city": "Monte Quemado",
        "city_ascii": "Monte Quemado",
        "country": "Argentina",
        "iso2": "AR",
        "iso3": "ARG",
        "lat": -25.79962807,
        "lng": -62.86658675,
        "pop": 11387,
        "province": "Santiago del Estero",
        "timezone": "America/Argentina/Cordoba"
    },
    {
        "city": "Charata",
        "city_ascii": "Charata",
        "country": "Argentina",
        "iso2": "AR",
        "iso3": "ARG",
        "lat": -27.21628579,
        "lng": -61.19999597,
        "pop": 18297,
        "province": "Chaco",
        "timezone": "America/Argentina/Cordoba"
    },
    {
        "city": "Las Lomitas",
        "city_ascii": "Las Lomitas",
        "country": "Argentina",
        "iso2": "AR",
        "iso3": "ARG",
        "lat": -24.69959186,
        "lng": -60.60000676,
        "pop": 7683,
        "province": "Formosa",
        "timezone": "America/Argentina/Cordoba"
    },
    {
        "city": "Mercedes",
        "city_ascii": "Mercedes",
        "country": "Argentina",
        "iso2": "AR",
        "iso3": "ARG",
        "lat": -29.1795768,
        "lng": -58.0799797,
        "pop": 22872.5,
        "province": "Corrientes",
        "timezone": "America/Argentina/Cordoba"
    },
    {
        "city": "Concordia",
        "city_ascii": "Concordia",
        "country": "Argentina",
        "iso2": "AR",
        "iso3": "ARG",
        "lat": -31.38957111,
        "lng": -58.02998275,
        "pop": 132760.5,
        "province": "Entre Ríos",
        "timezone": "America/Argentina/Cordoba"
    },
    {
        "city": "Sunchales",
        "city_ascii": "Sunchales",
        "country": "Argentina",
        "iso2": "AR",
        "iso3": "ARG",
        "lat": -30.93290648,
        "lng": -61.56661442,
        "pop": 12655,
        "province": "Santa Fe",
        "timezone": "America/Argentina/Cordoba"
    },
    {
        "city": "San Justo",
        "city_ascii": "San Justo",
        "country": "Argentina",
        "iso2": "AR",
        "iso3": "ARG",
        "lat": -30.78288979,
        "lng": -60.58328943,
        "pop": 9607,
        "province": "Santa Fe",
        "timezone": "America/Argentina/Cordoba"
    },
    {
        "city": "Vera",
        "city_ascii": "Vera",
        "country": "Argentina",
        "iso2": "AR",
        "iso3": "ARG",
        "lat": -29.4661743,
        "lng": -60.21659347,
        "pop": 9979,
        "province": "Santa Fe",
        "timezone": "America/Argentina/Cordoba"
    },
    {
        "city": "Reconquista",
        "city_ascii": "Reconquista",
        "country": "Argentina",
        "iso2": "AR",
        "iso3": "ARG",
        "lat": -29.13952757,
        "lng": -59.65001306,
        "pop": 86640.5,
        "province": "Santa Fe",
        "timezone": "America/Argentina/Cordoba"
    },
    {
        "city": "Venado Tuerto",
        "city_ascii": "Venado Tuerto",
        "country": "Argentina",
        "iso2": "AR",
        "iso3": "ARG",
        "lat": -33.74958209,
        "lng": -61.97000065,
        "pop": 52079,
        "province": "Santa Fe",
        "timezone": "America/Argentina/Cordoba"
    },
    {
        "city": "Esquel",
        "city_ascii": "Esquel",
        "country": "Argentina",
        "iso2": "AR",
        "iso3": "ARG",
        "lat": -42.90003131,
        "lng": -71.31661361,
        "pop": 20048,
        "province": "Chubut",
        "timezone": "America/Argentina/Catamarca"
    },
    {
        "city": "Zapala",
        "city_ascii": "Zapala",
        "country": "Argentina",
        "iso2": "AR",
        "iso3": "ARG",
        "lat": -38.90001707,
        "lng": -70.06666406,
        "pop": 19152,
        "province": "Neuquén",
        "timezone": "America/Argentina/Salta"
    },
    {
        "city": "Olavarria",
        "city_ascii": "Olavarria",
        "country": "Argentina",
        "iso2": "AR",
        "iso3": "ARG",
        "lat": -36.90003579,
        "lng": -60.3299974,
        "pop": 65059,
        "province": "Ciudad de Buenos Aires",
        "timezone": "America/Argentina/Buenos_Aires"
    },
    {
        "city": "Tandil",
        "city_ascii": "Tandil",
        "country": "Argentina",
        "iso2": "AR",
        "iso3": "ARG",
        "lat": -37.32001015,
        "lng": -59.15004358,
        "pop": 84799.5,
        "province": "Ciudad de Buenos Aires",
        "timezone": "America/Argentina/Buenos_Aires"
    },
    {
        "city": "Viedma",
        "city_ascii": "Viedma",
        "country": "Argentina",
        "iso2": "AR",
        "iso3": "ARG",
        "lat": -40.79995278,
        "lng": -63.0000153,
        "pop": 54031,
        "province": "Ciudad de Buenos Aires",
        "timezone": "America/Argentina/Salta"
    },
    {
        "city": "San Luis",
        "city_ascii": "San Luis",
        "country": "Argentina",
        "iso2": "AR",
        "iso3": "ARG",
        "lat": -33.29999713,
        "lng": -66.35001754,
        "pop": 308146,
        "province": "San Luis",
        "timezone": "America/Argentina/San_Luis"
    },
    {
        "city": "Rio Cuarto",
        "city_ascii": "Rio Cuarto",
        "country": "Argentina",
        "iso2": "AR",
        "iso3": "ARG",
        "lat": -33.13003335,
        "lng": -64.34998458,
        "pop": 135959.5,
        "province": "Córdoba",
        "timezone": "America/Argentina/Cordoba"
    },
    {
        "city": "San Salvador de Jujuy",
        "city_ascii": "San Salvador de Jujuy",
        "country": "Argentina",
        "iso2": "AR",
        "iso3": "ARG",
        "lat": -24.1833443,
        "lng": -65.30002995,
        "pop": 258739,
        "province": "Jujuy",
        "timezone": "America/Argentina/Jujuy"
    },
    {
        "city": "San Ramon de la Nueva Oran",
        "city_ascii": "San Ramon de la Nueva Oran",
        "country": "Argentina",
        "iso2": "AR",
        "iso3": "ARG",
        "lat": -23.13999713,
        "lng": -64.32001225,
        "pop": 69461.5,
        "province": "Salta",
        "timezone": "America/Argentina/Salta"
    },
    {
        "city": "Goya",
        "city_ascii": "Goya",
        "country": "Argentina",
        "iso2": "AR",
        "iso3": "ARG",
        "lat": -29.13999266,
        "lng": -59.26998458,
        "pop": 71274.5,
        "province": "Corrientes",
        "timezone": "America/Argentina/Cordoba"
    },
    {
        "city": "Puerto San Julian",
        "city_ascii": "Puerto San Julian",
        "country": "Argentina",
        "iso2": "AR",
        "iso3": "ARG",
        "lat": -49.30000242,
        "lng": -67.71665247,
        "pop": 2347,
        "province": "Santa Cruz",
        "timezone": "America/Argentina/Rio_Gallegos"
    },
    {
        "city": "Perito Moreno",
        "city_ascii": "Perito Moreno",
        "country": "Argentina",
        "iso2": "AR",
        "iso3": "ARG",
        "lat": -46.60001219,
        "lng": -70.93335535,
        "pop": 3766,
        "province": "Santa Cruz",
        "timezone": "America/Argentina/Rio_Gallegos"
    },
    {
        "city": "Rio Grande",
        "city_ascii": "Rio Grande",
        "country": "Argentina",
        "iso2": "AR",
        "iso3": "ARG",
        "lat": -53.79144552,
        "lng": -67.6989952,
        "pop": 31095,
        "province": "Tierra del Fuego",
        "timezone": "America/Argentina/Ushuaia"
    },
    {
        "city": "Ushuaia",
        "city_ascii": "Ushuaia",
        "country": "Argentina",
        "iso2": "AR",
        "iso3": "ARG",
        "lat": -54.79000324,
        "lng": -68.31000126,
        "pop": 50483.5,
        "province": "Tierra del Fuego",
        "timezone": "America/Argentina/Ushuaia"
    },
    {
        "city": "Sarmiento",
        "city_ascii": "Sarmiento",
        "country": "Argentina",
        "iso2": "AR",
        "iso3": "ARG",
        "lat": -45.60002155,
        "lng": -69.08331323,
        "pop": 5185,
        "province": "Chubut",
        "timezone": "America/Argentina/Catamarca"
    },
    {
        "city": "San Rafael",
        "city_ascii": "San Rafael",
        "country": "Argentina",
        "iso2": "AR",
        "iso3": "ARG",
        "lat": -34.60002114,
        "lng": -68.33333317,
        "pop": 79523.5,
        "province": "Mendoza",
        "timezone": "America/Argentina/Mendoza"
    },
    {
        "city": "Necochea",
        "city_ascii": "Necochea",
        "country": "Argentina",
        "iso2": "AR",
        "iso3": "ARG",
        "lat": -38.55998615,
        "lng": -58.74999048,
        "pop": 70562,
        "province": "Ciudad de Buenos Aires",
        "timezone": "America/Argentina/Buenos_Aires"
    },
    {
        "city": "Rio Colorado",
        "city_ascii": "Rio Colorado",
        "country": "Argentina",
        "iso2": "AR",
        "iso3": "ARG",
        "lat": -38.96657632,
        "lng": -64.08328251,
        "pop": 11499,
        "province": "La Pampa",
        "timezone": "America/Argentina/Salta"
    },
    {
        "city": "Catamarca",
        "city_ascii": "Catamarca",
        "country": "Argentina",
        "iso2": "AR",
        "iso3": "ARG",
        "lat": -28.47000771,
        "lng": -65.78000065,
        "pop": 162586,
        "province": "Catamarca",
        "timezone": "America/Argentina/Catamarca"
    },
    {
        "city": "La Rioja",
        "city_ascii": "La Rioja",
        "country": "Argentina",
        "iso2": "AR",
        "iso3": "ARG",
        "lat": -29.40995034,
        "lng": -66.84996118,
        "pop": 147130,
        "province": "La Rioja",
        "timezone": "America/Argentina/La_Rioja"
    },
    {
        "city": "Santiago del Estero",
        "city_ascii": "Santiago del Estero",
        "country": "Argentina",
        "iso2": "AR",
        "iso3": "ARG",
        "lat": -27.78333128,
        "lng": -64.26665633,
        "pop": 317549.5,
        "province": "Santiago del Estero",
        "timezone": "America/Argentina/Cordoba"
    },
    {
        "city": "Resistencia",
        "city_ascii": "Resistencia",
        "country": "Argentina",
        "iso2": "AR",
        "iso3": "ARG",
        "lat": -27.45999184,
        "lng": -58.99002751,
        "pop": 368455.5,
        "province": "Chaco",
        "timezone": "America/Argentina/Cordoba"
    },
    {
        "city": "Gualeguaychu",
        "city_ascii": "Gualeguaychu",
        "country": "Argentina",
        "iso2": "AR",
        "iso3": "ARG",
        "lat": -33.02001422,
        "lng": -58.52000452,
        "pop": 55860.5,
        "province": "Entre Ríos",
        "timezone": "America/Argentina/Cordoba"
    },
    {
        "city": "El Calafate",
        "city_ascii": "El Calafate",
        "country": "Argentina",
        "iso2": "AR",
        "iso3": "ARG",
        "lat": -50.33332436,
        "lng": -72.30001612,
        "pop": 6329,
        "province": "Santa Cruz",
        "timezone": "America/Argentina/Rio_Gallegos"
    },
    {
        "city": "San Juan",
        "city_ascii": "San Juan",
        "country": "Argentina",
        "iso2": "AR",
        "iso3": "ARG",
        "lat": -31.55002643,
        "lng": -68.51998845,
        "pop": 433892,
        "province": "San Juan",
        "timezone": "America/Argentina/San_Juan"
    },
    {
        "city": "Rawson",
        "city_ascii": "Rawson",
        "country": "Argentina",
        "iso2": "AR",
        "iso3": "ARG",
        "lat": -43.3000069,
        "lng": -65.09999048,
        "pop": 25062.5,
        "province": "Chubut",
        "timezone": "America/Argentina/Catamarca"
    },
    {
        "city": "Neuquen",
        "city_ascii": "Neuquen",
        "country": "Argentina",
        "iso2": "AR",
        "iso3": "ARG",
        "lat": -38.95003986,
        "lng": -68.05999068,
        "pop": 213823.5,
        "province": "Neuquén",
        "timezone": "America/Argentina/Salta"
    },
    {
        "city": "Santa Rosa",
        "city_ascii": "Santa Rosa",
        "country": "Argentina",
        "iso2": "AR",
        "iso3": "ARG",
        "lat": -36.6200012,
        "lng": -64.29998763,
        "pop": 97693.5,
        "province": "La Pampa",
        "timezone": "America/Argentina/Salta"
    },
    {
        "city": "San Carlos de Bariloche",
        "city_ascii": "San Carlos de Bariloche",
        "country": "Argentina",
        "iso2": "AR",
        "iso3": "ARG",
        "lat": -41.14995726,
        "lng": -71.29999964,
        "pop": 91953,
        "province": "Río Negro",
        "timezone": "America/Argentina/Salta"
    },
    {
        "city": "Salta",
        "city_ascii": "Salta",
        "country": "Argentina",
        "iso2": "AR",
        "iso3": "ARG",
        "lat": -24.78335936,
        "lng": -65.41663782,
        "pop": 484646,
        "province": "Salta",
        "timezone": "America/Argentina/Salta"
    },
    {
        "city": "Tucumán",
        "city_ascii": "San Miguel de Tucuman",
        "country": "Argentina",
        "iso2": "AR",
        "iso3": "ARG",
        "lat": -26.81600014,
        "lng": -65.21662419,
        "pop": 678803.5,
        "province": "Tucumán",
        "timezone": "America/Argentina/Tucuman"
    },
    {
        "city": "Formosa",
        "city_ascii": "Formosa",
        "country": "Argentina",
        "iso2": "AR",
        "iso3": "ARG",
        "lat": -26.17283527,
        "lng": -58.1828158,
        "pop": 202272,
        "province": "Formosa",
        "timezone": "America/Argentina/Cordoba"
    },
    {
        "city": "Santa Fe",
        "city_ascii": "Santa Fe",
        "country": "Argentina",
        "iso2": "AR",
        "iso3": "ARG",
        "lat": -31.62387205,
        "lng": -60.69000126,
        "pop": 393504,
        "province": "Santa Fe",
        "timezone": "America/Argentina/Cordoba"
    },
    {
        "city": "Rosario",
        "city_ascii": "Rosario",
        "country": "Argentina",
        "iso2": "AR",
        "iso3": "ARG",
        "lat": -32.95112954,
        "lng": -60.66630762,
        "pop": 1094784.5,
        "province": "Santa Fe",
        "timezone": "America/Argentina/Cordoba"
    },
    {
        "city": "Puerto Deseado",
        "city_ascii": "Puerto Deseado",
        "country": "Argentina",
        "iso2": "AR",
        "iso3": "ARG",
        "lat": -47.75001951,
        "lng": -65.89996749,
        "pop": 3305,
        "province": "Santa Cruz",
        "timezone": "America/Argentina/Rio_Gallegos"
    },
    {
        "city": "Rio Gallegos",
        "city_ascii": "Rio Gallegos",
        "country": "Argentina",
        "iso2": "AR",
        "iso3": "ARG",
        "lat": -51.63329669,
        "lng": -69.21658675,
        "pop": 77183,
        "province": "Santa Cruz",
        "timezone": "America/Argentina/Rio_Gallegos"
    },
    {
        "city": "Mendoza",
        "city_ascii": "Mendoza",
        "country": "Argentina",
        "iso2": "AR",
        "iso3": "ARG",
        "lat": -32.88333006,
        "lng": -68.81661117,
        "pop": 827815,
        "province": "Mendoza",
        "timezone": "America/Argentina/Mendoza"
    },
    {
        "city": "Bahia Blanca",
        "city_ascii": "Bahia Blanca",
        "country": "Argentina",
        "iso2": "AR",
        "iso3": "ARG",
        "lat": -38.74002684,
        "lng": -62.2650214,
        "pop": 279041,
        "province": "Ciudad de Buenos Aires",
        "timezone": "America/Argentina/Buenos_Aires"
    },
    {
        "city": "Mar del Plata",
        "city_ascii": "Mar del Plata",
        "country": "Argentina",
        "iso2": "AR",
        "iso3": "ARG",
        "lat": -38.00002033,
        "lng": -57.57998438,
        "pop": 554916,
        "province": "Ciudad de Buenos Aires",
        "timezone": "America/Argentina/Buenos_Aires"
    },
    {
        "city": "Córdoba",
        "city_ascii": "Cordoba",
        "country": "Argentina",
        "iso2": "AR",
        "iso3": "ARG",
        "lat": -31.39995807,
        "lng": -64.18229456,
        "pop": 1374467.5,
        "province": "Córdoba",
        "timezone": "America/Argentina/Cordoba"
    },
    {
        "city": "Posadas",
        "city_ascii": "Posadas",
        "country": "Argentina",
        "iso2": "AR",
        "iso3": "ARG",
        "lat": -27.3578321,
        "lng": -55.88510735,
        "pop": 334589.5,
        "province": "Misiones",
        "timezone": "America/Argentina/Cordoba"
    },
    {
        "city": "Buenos Aires",
        "city_ascii": "Buenos Aires",
        "country": "Argentina",
        "iso2": "AR",
        "iso3": "ARG",
        "lat": -34.60250161,
        "lng": -58.39753137,
        "pop": 11862073,
        "province": "Ciudad de Buenos Aires",
        "timezone": "America/Argentina/Buenos_Aires"
    },
    {
        "city": "Ashtarak",
        "city_ascii": "Ashtarak",
        "country": "Armenia",
        "iso2": "AM",
        "iso3": "ARM",
        "lat": 40.3016667,
        "lng": 44.3591667,
        "pop": 18779,
        "province": "Aragatsotn",
        "timezone": "Asia/Yerevan"
    },
    {
        "city": "Ijevan",
        "city_ascii": "Ijevan",
        "country": "Armenia",
        "iso2": "AM",
        "iso3": "ARM",
        "lat": 40.8755556,
        "lng": 45.1491667,
        "pop": 14737,
        "province": "Tavush",
        "timezone": "Asia/Yerevan"
    },
    {
        "city": "Artashat",
        "city_ascii": "Artashat",
        "country": "Armenia",
        "iso2": "AM",
        "iso3": "ARM",
        "lat": 39.9538889,
        "lng": 44.5505556,
        "pop": 20562,
        "province": "Ararat",
        "timezone": "Asia/Yerevan"
    },
    {
        "city": "Gavarr",
        "city_ascii": "Gavarr",
        "country": "Armenia",
        "iso2": "AM",
        "iso3": "ARM",
        "lat": 40.3588889,
        "lng": 45.1266667,
        "pop": 21680,
        "province": "Gegharkunik",
        "timezone": "Asia/Yerevan"
    },
    {
        "city": "Yeghegnadzor",
        "city_ascii": "Yeghegnadzor",
        "country": "Armenia",
        "iso2": "AM",
        "iso3": "ARM",
        "lat": 39.7611111,
        "lng": 45.3333333,
        "pop": 8200,
        "province": "Vayots Dzor",
        "timezone": "Asia/Yerevan"
    },
    {
        "city": "Gyumri",
        "city_ascii": "Gyumri",
        "country": "Armenia",
        "iso2": "AM",
        "iso3": "ARM",
        "lat": 40.78943402,
        "lng": 43.84749385,
        "pop": 140277.5,
        "province": "Shirak",
        "timezone": "Asia/Yerevan"
    },
    {
        "city": "Vanadzor",
        "city_ascii": "Vanadzor",
        "country": "Armenia",
        "iso2": "AM",
        "iso3": "ARM",
        "lat": 40.81276593,
        "lng": 44.48828162,
        "pop": 89295,
        "province": "Lori",
        "timezone": "Asia/Yerevan"
    },
    {
        "city": "Yerevan",
        "city_ascii": "Yerevan",
        "country": "Armenia",
        "iso2": "AM",
        "iso3": "ARM",
        "lat": 40.18115074,
        "lng": 44.51355139,
        "pop": 1097742.5,
        "province": "Erevan",
        "timezone": "Asia/Yerevan"
    },
    {
        "city": "Oranjestad",
        "city_ascii": "Oranjestad",
        "country": "Aruba",
        "iso2": "AW",
        "iso3": "ABW",
        "lat": 12.53038373,
        "lng": -70.02899195,
        "pop": 50887.5,
        "province": "",
        "timezone": "America/Aruba"
    },
    {
        "city": "Central Coast",
        "city_ascii": "Central Coast",
        "country": "Australia",
        "iso2": "AU",
        "iso3": "AUS",
        "lat": -33.42004148,
        "lng": 151.3000048,
        "pop": 3026,
        "province": "New South Wales",
        "timezone": "Australia/Sydney"
    },
    {
        "city": "Sunshine Coast",
        "city_ascii": "Sunshine Coast",
        "country": "Australia",
        "iso2": "AU",
        "iso3": "AUS",
        "lat": -26.67998777,
        "lng": 153.0500272,
        "pop": 57215.5,
        "province": "Queensland",
        "timezone": "Australia/Brisbane"
    },
    {
        "city": "Bourke",
        "city_ascii": "Bourke",
        "country": "Australia",
        "iso2": "AU",
        "iso3": "AUS",
        "lat": -30.1,
        "lng": 145.9333333,
        "pop": 2475,
        "province": "New South Wales",
        "timezone": "Australia/Sydney"
    },
    {
        "city": "Pine Creek",
        "city_ascii": "Pine Creek",
        "country": "Australia",
        "iso2": "AU",
        "iso3": "AUS",
        "lat": -13.81617348,
        "lng": 131.816698,
        "pop": 505,
        "province": "Northern Territory",
        "timezone": "Australia/Darwin"
    },
    {
        "city": "Adelaide River",
        "city_ascii": "Adelaide River",
        "country": "Australia",
        "iso2": "AU",
        "iso3": "AUS",
        "lat": -13.2495414,
        "lng": 131.0999975,
        "pop": 237,
        "province": "Northern Territory",
        "timezone": "Australia/Darwin"
    },
    {
        "city": "McMinns Lagoon",
        "city_ascii": "McMinns Lagoon",
        "country": "Australia",
        "iso2": "AU",
        "iso3": "AUS",
        "lat": -12.53289264,
        "lng": 131.0500264,
        "pop": 5025,
        "province": "Northern Territory",
        "timezone": "Australia/Darwin"
    },
    {
        "city": "Newcastle Waters",
        "city_ascii": "Newcastle Waters",
        "country": "Australia",
        "iso2": "AU",
        "iso3": "AUS",
        "lat": -17.55279295,
        "lng": 133.4672432,
        "pop": 10,
        "province": "Northern Territory",
        "timezone": "Australia/Darwin"
    },
    {
        "city": "Ravensthorpe",
        "city_ascii": "Ravensthorpe",
        "country": "Australia",
        "iso2": "AU",
        "iso3": "AUS",
        "lat": -33.58287392,
        "lng": 120.0333345,
        "pop": 639,
        "province": "Western Australia",
        "timezone": "Australia/Perth"
    },
    {
        "city": "Wagin",
        "city_ascii": "Wagin",
        "country": "Australia",
        "iso2": "AU",
        "iso3": "AUS",
        "lat": -33.29958372,
        "lng": 117.3499841,
        "pop": 1037.5,
        "province": "Western Australia",
        "timezone": "Australia/Perth"
    },
    {
        "city": "Roebourne",
        "city_ascii": "Roebourne",
        "country": "Australia",
        "iso2": "AU",
        "iso3": "AUS",
        "lat": -20.7829317,
        "lng": 117.1333048,
        "pop": 11281.5,
        "province": "Western Australia",
        "timezone": "Australia/Perth"
    },
    {
        "city": "Pannawonica",
        "city_ascii": "Pannawonica",
        "country": "Australia",
        "iso2": "AU",
        "iso3": "AUS",
        "lat": -21.63657469,
        "lng": 116.3250337,
        "pop": 686,
        "province": "Western Australia",
        "timezone": "Australia/Perth"
    },
    {
        "city": "Tom Price",
        "city_ascii": "Tom Price",
        "country": "Australia",
        "iso2": "AU",
        "iso3": "AUS",
        "lat": -22.69346108,
        "lng": 117.7930578,
        "pop": 1822,
        "province": "Western Australia",
        "timezone": "Australia/Perth"
    },
    {
        "city": "Kalbarri",
        "city_ascii": "Kalbarri",
        "country": "Australia",
        "iso2": "AU",
        "iso3": "AUS",
        "lat": -27.66618081,
        "lng": 114.1666642,
        "pop": 1537,
        "province": "Western Australia",
        "timezone": "Australia/Perth"
    },
    {
        "city": "Mount Magnet",
        "city_ascii": "Mount Magnet",
        "country": "Australia",
        "iso2": "AU",
        "iso3": "AUS",
        "lat": -28.06620807,
        "lng": 117.8166739,
        "pop": 424,
        "province": "Western Australia",
        "timezone": "Australia/Perth"
    },
    {
        "city": "Morawa",
        "city_ascii": "Morawa",
        "country": "Australia",
        "iso2": "AU",
        "iso3": "AUS",
        "lat": -29.21626707,
        "lng": 116.0000406,
        "pop": 259,
        "province": "Western Australia",
        "timezone": "Australia/Perth"
    },
    {
        "city": "Port Denison",
        "city_ascii": "Port Denison",
        "country": "Australia",
        "iso2": "AU",
        "iso3": "AUS",
        "lat": -29.28282632,
        "lng": 114.9166442,
        "pop": 1213,
        "province": "Western Australia",
        "timezone": "Australia/Perth"
    },
    {
        "city": "Merredin",
        "city_ascii": "Merredin",
        "country": "Australia",
        "iso2": "AU",
        "iso3": "AUS",
        "lat": -31.48284707,
        "lng": 118.2666723,
        "pop": 2054,
        "province": "Western Australia",
        "timezone": "Australia/Perth"
    },
    {
        "city": "Mount Barker",
        "city_ascii": "Mount Barker",
        "country": "Australia",
        "iso2": "AU",
        "iso3": "AUS",
        "lat": -34.632784,
        "lng": 117.6666056,
        "pop": 1771.5,
        "province": "Western Australia",
        "timezone": "Australia/Perth"
    },
    {
        "city": "Katanning",
        "city_ascii": "Katanning",
        "country": "Australia",
        "iso2": "AU",
        "iso3": "AUS",
        "lat": -33.69955931,
        "lng": 117.5500752,
        "pop": 3140,
        "province": "Western Australia",
        "timezone": "Australia/Perth"
    },